{
 "長野県上伊那郡中川村大草３４６１－ロ": {
  "lat": 35.638672,
  "lon": 137.94899,
  "approx": false,
  "matched_query": "長野県上伊那郡中川村大草３４６１－ロ",
  "matched_title": "長野県中川村大草３４６１番地"
 },
 "長野県上伊那郡中川村大草５１３５": {
  "lat": 35.624954,
  "lon": 137.948929,
  "approx": false,
  "matched_query": "長野県上伊那郡中川村大草５１３５",
  "matched_title": "長野県中川村大草５１３５番地"
 },
 "長野県上伊那郡中川村大草５７３１": {
  "lat": 35.641712,
  "lon": 137.968369,
  "approx": true,
  "matched_query": "長野県上伊那郡中川村大草５７３１",
  "matched_title": "長野県中川村大草"
 },
 "長野県上伊那郡中川村大草５８２１－３": {
  "lat": 35.641712,
  "lon": 137.968369,
  "approx": true,
  "matched_query": "長野県上伊那郡中川村大草５８２１－３",
  "matched_title": "長野県中川村大草"
 },
 "長野県上伊那郡中川村大草６０３２‐１": {
  "lat": 35.62252,
  "lon": 137.96759,
  "approx": false,
  "matched_query": "長野県上伊那郡中川村大草６０３２‐１",
  "matched_title": "長野県中川村大草６０３２番地"
 },
 "長野県上伊那郡中川村大草６５７０－１": {
  "lat": 35.641712,
  "lon": 137.968369,
  "approx": true,
  "matched_query": "長野県上伊那郡中川村大草６５７０－１",
  "matched_title": "長野県中川村大草"
 },
 "長野県上伊那郡中川村大草６７１２－２０": {
  "lat": 35.641712,
  "lon": 137.968369,
  "approx": true,
  "matched_query": "長野県上伊那郡中川村大草６７１２－２０",
  "matched_title": "長野県中川村大草"
 },
 "長野県上伊那郡中川村片桐１３９１": {
  "lat": 35.634518,
  "lon": 137.919189,
  "approx": true,
  "matched_query": "長野県上伊那郡中川村片桐１３９１",
  "matched_title": "長野県中川村片桐"
 },
 "長野県上伊那郡中川村片桐２０２６－１": {
  "lat": 35.634518,
  "lon": 137.919189,
  "approx": true,
  "matched_query": "長野県上伊那郡中川村片桐２０２６－１",
  "matched_title": "長野県中川村片桐"
 },
 "長野県上伊那郡中川村片桐２０２６－２": {
  "lat": 35.634518,
  "lon": 137.919189,
  "approx": true,
  "matched_query": "長野県上伊那郡中川村片桐２０２６－２",
  "matched_title": "長野県中川村片桐"
 },
 "長野県上伊那郡中川村片桐２３１６－１": {
  "lat": 35.634518,
  "lon": 137.919189,
  "approx": true,
  "matched_query": "長野県上伊那郡中川村片桐２３１６－１",
  "matched_title": "長野県中川村片桐"
 },
 "長野県上伊那郡中川村片桐２６１４－１": {
  "lat": 35.634518,
  "lon": 137.919189,
  "approx": true,
  "matched_query": "長野県上伊那郡中川村片桐２６１４－１",
  "matched_title": "長野県中川村片桐"
 },
 "長野県上伊那郡中川村片桐２６９８－３": {
  "lat": 35.634518,
  "lon": 137.919189,
  "approx": true,
  "matched_query": "長野県上伊那郡中川村片桐２６９８－３",
  "matched_title": "長野県中川村片桐"
 },
 "長野県上伊那郡中川村片桐２７２７": {
  "lat": 35.634518,
  "lon": 137.919189,
  "approx": true,
  "matched_query": "長野県上伊那郡中川村片桐２７２７",
  "matched_title": "長野県中川村片桐"
 },
 "長野県上伊那郡中川村片桐２７６０": {
  "lat": 35.634518,
  "lon": 137.919189,
  "approx": true,
  "matched_query": "長野県上伊那郡中川村片桐２７６０",
  "matched_title": "長野県中川村片桐"
 },
 "長野県上伊那郡中川村片桐２７６４": {
  "lat": 35.634518,
  "lon": 137.919189,
  "approx": true,
  "matched_query": "長野県上伊那郡中川村片桐２７６４",
  "matched_title": "長野県中川村片桐"
 },
 "長野県上伊那郡中川村片桐３３７０－１": {
  "lat": 35.634518,
  "lon": 137.919189,
  "approx": true,
  "matched_query": "長野県上伊那郡中川村片桐３３７０－１",
  "matched_title": "長野県中川村片桐"
 },
 "長野県上伊那郡中川村片桐３５９４－３": {
  "lat": 35.634518,
  "lon": 137.919189,
  "approx": true,
  "matched_query": "長野県上伊那郡中川村片桐３５９４－３",
  "matched_title": "長野県中川村片桐"
 },
 "長野県上伊那郡中川村片桐３６０－１、３６１－２（番地未確定）": {
  "lat": 35.634518,
  "lon": 137.919189,
  "approx": true,
  "matched_query": "長野県上伊那郡中川村片桐３６０－１、３６１－２（番地未確定）",
  "matched_title": "長野県中川村片桐"
 },
 "長野県上伊那郡中川村片桐３８０３": {
  "lat": 35.634518,
  "lon": 137.919189,
  "approx": true,
  "matched_query": "長野県上伊那郡中川村片桐３８０３",
  "matched_title": "長野県中川村片桐"
 },
 "長野県上伊那郡中川村片桐３９０５－１": {
  "lat": 35.634518,
  "lon": 137.919189,
  "approx": true,
  "matched_query": "長野県上伊那郡中川村片桐３９０５－１",
  "matched_title": "長野県中川村片桐"
 },
 "長野県上伊那郡中川村片桐４０３０－１": {
  "lat": 35.630142,
  "lon": 137.925461,
  "approx": false,
  "matched_query": "長野県上伊那郡中川村片桐４０３０－１",
  "matched_title": "長野県中川村片桐４０３０番地"
 },
 "長野県上伊那郡中川村片桐４０５７": {
  "lat": 35.634518,
  "lon": 137.919189,
  "approx": true,
  "matched_query": "長野県上伊那郡中川村片桐４０５７",
  "matched_title": "長野県中川村片桐"
 },
 "長野県上伊那郡中川村片桐４１６４": {
  "lat": 35.634518,
  "lon": 137.919189,
  "approx": true,
  "matched_query": "長野県上伊那郡中川村片桐４１６４",
  "matched_title": "長野県中川村片桐"
 },
 "長野県上伊那郡中川村片桐４３５８": {
  "lat": 35.634518,
  "lon": 137.919189,
  "approx": true,
  "matched_query": "長野県上伊那郡中川村片桐４３５８",
  "matched_title": "長野県中川村片桐"
 },
 "長野県上伊那郡中川村片桐４６２０‐１１": {
  "lat": 35.62772,
  "lon": 137.934448,
  "approx": false,
  "matched_query": "長野県上伊那郡中川村片桐４６２０‐１１",
  "matched_title": "長野県中川村片桐４６２０番地"
 },
 "長野県上伊那郡中川村片桐４９３９－８": {
  "lat": 35.635509,
  "lon": 137.928452,
  "approx": false,
  "matched_query": "長野県上伊那郡中川村片桐４９３９－８",
  "matched_title": "長野県中川村片桐４９３９番地"
 },
 "長野県上伊那郡中川村片桐４９５２": {
  "lat": 35.634518,
  "lon": 137.919189,
  "approx": true,
  "matched_query": "長野県上伊那郡中川村片桐４９５２",
  "matched_title": "長野県中川村片桐"
 },
 "長野県上伊那郡中川村片桐４９７５－１": {
  "lat": 35.638786,
  "lon": 137.92804,
  "approx": false,
  "matched_query": "長野県上伊那郡中川村片桐４９７５－１",
  "matched_title": "長野県中川村片桐４９７５番地"
 },
 "長野県上伊那郡中川村片桐４９７６－２": {
  "lat": 35.638786,
  "lon": 137.92804,
  "approx": false,
  "matched_query": "長野県上伊那郡中川村片桐４９７６－２",
  "matched_title": "長野県中川村片桐４９７６番地"
 },
 "長野県上伊那郡中川村片桐５１５８": {
  "lat": 35.640724,
  "lon": 137.931076,
  "approx": false,
  "matched_query": "長野県上伊那郡中川村片桐５１５８",
  "matched_title": "長野県中川村片桐５１５８番地"
 },
 "長野県上伊那郡中川村片桐５２４２": {
  "lat": 35.634518,
  "lon": 137.919189,
  "approx": true,
  "matched_query": "長野県上伊那郡中川村片桐５２４２",
  "matched_title": "長野県中川村片桐"
 },
 "長野県上伊那郡中川村片桐６０５９－２": {
  "lat": 35.634518,
  "lon": 137.919189,
  "approx": true,
  "matched_query": "長野県上伊那郡中川村片桐６０５９－２",
  "matched_title": "長野県中川村片桐"
 },
 "長野県上伊那郡中川村片桐６４４８－２": {
  "lat": 35.634518,
  "lon": 137.919189,
  "approx": true,
  "matched_query": "長野県上伊那郡中川村片桐６４４８－２",
  "matched_title": "長野県中川村片桐"
 },
 "長野県上伊那郡中川村片桐６６１４－１": {
  "lat": 35.634518,
  "lon": 137.919189,
  "approx": true,
  "matched_query": "長野県上伊那郡中川村片桐６６１４－１",
  "matched_title": "長野県中川村片桐"
 },
 "長野県上伊那郡中川村片桐６８４８－１": {
  "lat": 35.634518,
  "lon": 137.919189,
  "approx": true,
  "matched_query": "長野県上伊那郡中川村片桐６８４８－１",
  "matched_title": "長野県中川村片桐"
 },
 "長野県上伊那郡中川村片桐７７９１－２": {
  "lat": 35.634518,
  "lon": 137.919189,
  "approx": true,
  "matched_query": "長野県上伊那郡中川村片桐７７９１－２",
  "matched_title": "長野県中川村片桐"
 },
 "長野県上伊那郡中川村片桐７７９４－１": {
  "lat": 35.634518,
  "lon": 137.919189,
  "approx": true,
  "matched_query": "長野県上伊那郡中川村片桐７７９４－１",
  "matched_title": "長野県中川村片桐"
 },
 "長野県上伊那郡中川村葛島１４９２": {
  "lat": 35.608105,
  "lon": 137.934235,
  "approx": false,
  "matched_query": "長野県上伊那郡中川村葛島１４９２",
  "matched_title": "長野県中川村葛島１４９２番地"
 },
 "長野県上伊那郡中川村葛島１５２７－１": {
  "lat": 35.61512,
  "lon": 137.945267,
  "approx": true,
  "matched_query": "長野県上伊那郡中川村葛島１５２７－１",
  "matched_title": "長野県中川村葛島"
 },
 "長野県上伊那郡中川村葛島１５５７－２": {
  "lat": 35.61512,
  "lon": 137.945267,
  "approx": true,
  "matched_query": "長野県上伊那郡中川村葛島１５５７－２",
  "matched_title": "長野県中川村葛島"
 },
 "長野県上伊那郡中川村葛島１５７１": {
  "lat": 35.61512,
  "lon": 137.945267,
  "approx": true,
  "matched_query": "長野県上伊那郡中川村葛島１５７１",
  "matched_title": "長野県中川村葛島"
 },
 "長野県上伊那郡中川村葛島１５７６－１": {
  "lat": 35.61512,
  "lon": 137.945267,
  "approx": true,
  "matched_query": "長野県上伊那郡中川村葛島１５７６－１",
  "matched_title": "長野県中川村葛島"
 },
 "長野県上伊那郡中川村葛島１６－１": {
  "lat": 35.61512,
  "lon": 137.945267,
  "approx": true,
  "matched_query": "長野県上伊那郡中川村葛島１６－１",
  "matched_title": "長野県中川村葛島"
 },
 "長野県上伊那郡中川村葛島１８４７－２": {
  "lat": 35.61512,
  "lon": 137.945267,
  "approx": true,
  "matched_query": "長野県上伊那郡中川村葛島１８４７－２",
  "matched_title": "長野県中川村葛島"
 },
 "長野県上伊那郡中川村葛島１８５１－１": {
  "lat": 35.61512,
  "lon": 137.945267,
  "approx": true,
  "matched_query": "長野県上伊那郡中川村葛島１８５１－１",
  "matched_title": "長野県中川村葛島"
 },
 "長野県上伊那郡中川村葛島２１８３－１": {
  "lat": 35.61512,
  "lon": 137.945267,
  "approx": true,
  "matched_query": "長野県上伊那郡中川村葛島２１８３－１",
  "matched_title": "長野県中川村葛島"
 },
 "長野県上伊那郡中川村葛島５０": {
  "lat": 35.625984,
  "lon": 137.92836,
  "approx": false,
  "matched_query": "長野県上伊那郡中川村葛島５０",
  "matched_title": "長野県中川村葛島５０番地"
 },
 "長野県上伊那郡中川村１３７－２": {
  "lat": 35.634544,
  "lon": 137.946014,
  "approx": true,
  "matched_query": "長野県上伊那郡中川村１３７－２",
  "matched_title": "長野県上伊那郡中川村"
 },
 "長野県上伊那郡中川村３６６４": {
  "lat": 35.634544,
  "lon": 137.946014,
  "approx": true,
  "matched_query": "長野県上伊那郡中川村３６６４",
  "matched_title": "長野県上伊那郡中川村"
 },
 "長野県上伊那郡南箕輪村丘下３９８－１": {
  "lat": 35.872898,
  "lon": 137.975082,
  "approx": true,
  "matched_query": "長野県上伊那郡南箕輪村丘下３９８－１",
  "matched_title": "長野県上伊那郡南箕輪村"
 },
 "長野県上伊那郡南箕輪村久保８８５－１": {
  "lat": 35.892361,
  "lon": 137.980286,
  "approx": false,
  "matched_query": "長野県上伊那郡南箕輪村久保８８５－１",
  "matched_title": "長野県南箕輪村久保８８５番地"
 },
 "長野県上伊那郡南箕輪村北原１６２８－１": {
  "lat": 35.890442,
  "lon": 137.955002,
  "approx": false,
  "matched_query": "長野県上伊那郡南箕輪村北原１６２８－１",
  "matched_title": "長野県南箕輪村北原１６２８番地"
 },
 "長野県上伊那郡南箕輪村北殿３９３０": {
  "lat": 35.884064,
  "lon": 137.990585,
  "approx": false,
  "matched_query": "長野県上伊那郡南箕輪村北殿３９３０",
  "matched_title": "長野県南箕輪村北殿３９３０番地"
 },
 "長野県上伊那郡南箕輪村南箕輪村一円２００７－２": {
  "lat": 35.861404,
  "lon": 137.927032,
  "approx": true,
  "matched_query": "長野県上伊那郡南箕輪村南箕輪村一円２００７－２",
  "matched_title": "長野県南箕輪村南原"
 },
 "長野県上伊那郡南箕輪村南箕輪村一円８００６－２": {
  "lat": 35.861404,
  "lon": 137.927032,
  "approx": true,
  "matched_query": "長野県上伊那郡南箕輪村南箕輪村一円８００６－２",
  "matched_title": "長野県南箕輪村南原"
 },
 "長野県上伊那郡南箕輪村南箕輪村中の原９７９０－２": {
  "lat": 35.861404,
  "lon": 137.927032,
  "approx": true,
  "matched_query": "長野県上伊那郡南箕輪村南箕輪村中の原９７９０－２",
  "matched_title": "長野県南箕輪村南原"
 },
 "長野県上伊那郡南箕輪村南箕輪村字中込７７３": {
  "lat": 35.861404,
  "lon": 137.927032,
  "approx": true,
  "matched_query": "長野県上伊那郡南箕輪村南箕輪村字中込７７３",
  "matched_title": "長野県南箕輪村南原"
 },
 "長野県上伊那郡南箕輪村南箕輪村字南垣外９４４－１": {
  "lat": 35.861404,
  "lon": 137.927032,
  "approx": true,
  "matched_query": "長野県上伊那郡南箕輪村南箕輪村字南垣外９４４－１",
  "matched_title": "長野県南箕輪村南原"
 },
 "長野県上伊那郡南箕輪村南箕輪村字善内林１９００－４": {
  "lat": 35.861404,
  "lon": 137.927032,
  "approx": true,
  "matched_query": "長野県上伊那郡南箕輪村南箕輪村字善内林１９００－４",
  "matched_title": "長野県南箕輪村南原"
 },
 "長野県上伊那郡南箕輪村南箕輪村字天下方２１６": {
  "lat": 35.861404,
  "lon": 137.927032,
  "approx": true,
  "matched_query": "長野県上伊那郡南箕輪村南箕輪村字天下方２１６",
  "matched_title": "長野県南箕輪村南原"
 },
 "長野県上伊那郡南箕輪村南箕輪村字家際６５１９": {
  "lat": 35.861404,
  "lon": 137.927032,
  "approx": true,
  "matched_query": "長野県上伊那郡南箕輪村南箕輪村字家際６５１９",
  "matched_title": "長野県南箕輪村南原"
 },
 "長野県上伊那郡南箕輪村南箕輪村字御前窪９３０９－５": {
  "lat": 35.861404,
  "lon": 137.927032,
  "approx": true,
  "matched_query": "長野県上伊那郡南箕輪村南箕輪村字御前窪９３０９－５",
  "matched_title": "長野県南箕輪村南原"
 },
 "長野県上伊那郡南箕輪村南箕輪村１５３３－１０": {
  "lat": 35.861404,
  "lon": 137.927032,
  "approx": true,
  "matched_query": "長野県上伊那郡南箕輪村南箕輪村１５３３－１０",
  "matched_title": "長野県南箕輪村南原"
 },
 "長野県上伊那郡南箕輪村南箕輪村１６３－１": {
  "lat": 35.861404,
  "lon": 137.927032,
  "approx": true,
  "matched_query": "長野県上伊那郡南箕輪村南箕輪村１６３－１",
  "matched_title": "長野県南箕輪村南原"
 },
 "長野県上伊那郡南箕輪村南箕輪村１９９": {
  "lat": 35.861404,
  "lon": 137.927032,
  "approx": true,
  "matched_query": "長野県上伊那郡南箕輪村南箕輪村１９９",
  "matched_title": "長野県南箕輪村南原"
 },
 "長野県上伊那郡南箕輪村南箕輪村２３８０－２５６": {
  "lat": 35.861404,
  "lon": 137.927032,
  "approx": true,
  "matched_query": "長野県上伊那郡南箕輪村南箕輪村２３８０－２５６",
  "matched_title": "長野県南箕輪村南原"
 },
 "長野県上伊那郡南箕輪村南箕輪村２３８０－４８０": {
  "lat": 35.861404,
  "lon": 137.927032,
  "approx": true,
  "matched_query": "長野県上伊那郡南箕輪村南箕輪村２３８０－４８０",
  "matched_title": "長野県南箕輪村南原"
 },
 "長野県上伊那郡南箕輪村南箕輪村７３４７－１": {
  "lat": 35.861404,
  "lon": 137.927032,
  "approx": true,
  "matched_query": "長野県上伊那郡南箕輪村南箕輪村７３４７－１",
  "matched_title": "長野県南箕輪村南原"
 },
 "長野県上伊那郡南箕輪村南箕輪村８３０６－１８４０": {
  "lat": 35.861404,
  "lon": 137.927032,
  "approx": true,
  "matched_query": "長野県上伊那郡南箕輪村南箕輪村８３０６－１８４０",
  "matched_title": "長野県南箕輪村南原"
 },
 "長野県上伊那郡南箕輪村南箕輪村９３１４－１": {
  "lat": 35.861404,
  "lon": 137.927032,
  "approx": true,
  "matched_query": "長野県上伊那郡南箕輪村南箕輪村９３１４－１",
  "matched_title": "長野県南箕輪村南原"
 },
 "長野県上伊那郡南箕輪村南箕輪村９７３６－８": {
  "lat": 35.861404,
  "lon": 137.927032,
  "approx": true,
  "matched_query": "長野県上伊那郡南箕輪村南箕輪村９７３６－８",
  "matched_title": "長野県南箕輪村南原"
 },
 "長野県上伊那郡南箕輪村大泉１０６７８": {
  "lat": 35.883389,
  "lon": 137.962769,
  "approx": true,
  "matched_query": "長野県上伊那郡南箕輪村大泉１０６７８",
  "matched_title": "長野県南箕輪村大泉"
 },
 "長野県上伊那郡南箕輪村大芝２３８０－９": {
  "lat": 35.882034,
  "lon": 137.946884,
  "approx": false,
  "matched_query": "長野県上伊那郡南箕輪村大芝２３８０－９",
  "matched_title": "長野県南箕輪村大芝２３８０番地"
 },
 "長野県上伊那郡南箕輪村字上手田２１７８": {
  "lat": 35.872898,
  "lon": 137.975082,
  "approx": true,
  "matched_query": "長野県上伊那郡南箕輪村字上手田２１７８",
  "matched_title": "長野県上伊那郡南箕輪村"
 },
 "長野県上伊那郡南箕輪村字丘下３７２－２": {
  "lat": 35.872898,
  "lon": 137.975082,
  "approx": true,
  "matched_query": "長野県上伊那郡南箕輪村字丘下３７２－２",
  "matched_title": "長野県上伊那郡南箕輪村"
 },
 "長野県上伊那郡南箕輪村字丘下４１３－１": {
  "lat": 35.872898,
  "lon": 137.975082,
  "approx": true,
  "matched_query": "長野県上伊那郡南箕輪村字丘下４１３－１",
  "matched_title": "長野県上伊那郡南箕輪村"
 },
 "長野県上伊那郡南箕輪村字中の原９９１０－２": {
  "lat": 35.887936,
  "lon": 137.978943,
  "approx": true,
  "matched_query": "長野県上伊那郡南箕輪村字中の原９９１０－２",
  "matched_title": "長野県南箕輪村中込"
 },
 "長野県上伊那郡南箕輪村字中川原４２９５－１": {
  "lat": 35.887936,
  "lon": 137.978943,
  "approx": true,
  "matched_query": "長野県上伊那郡南箕輪村字中川原４２９５－１",
  "matched_title": "長野県南箕輪村中込"
 },
 "長野県上伊那郡南箕輪村字中野原８３０６ー１２３９": {
  "lat": 35.887936,
  "lon": 137.978943,
  "approx": true,
  "matched_query": "長野県上伊那郡南箕輪村字中野原８３０６ー１２３９",
  "matched_title": "長野県南箕輪村中込"
 },
 "長野県上伊那郡南箕輪村字久保田９８": {
  "lat": 35.893291,
  "lon": 137.982101,
  "approx": true,
  "matched_query": "長野県上伊那郡南箕輪村字久保田９８",
  "matched_title": "長野県南箕輪村久保"
 },
 "長野県上伊那郡南箕輪村字北原１６２５‐２": {
  "lat": 35.894585,
  "lon": 137.96376,
  "approx": true,
  "matched_query": "長野県上伊那郡南箕輪村字北原１６２５‐２",
  "matched_title": "長野県南箕輪村北原"
 },
 "長野県上伊那郡南箕輪村字北原１６３４‐３１９": {
  "lat": 35.89753,
  "lon": 137.954391,
  "approx": false,
  "matched_query": "長野県上伊那郡南箕輪村字北原１６３４‐３１９",
  "matched_title": "長野県南箕輪村北原１６３４番地"
 },
 "長野県上伊那郡南箕輪村字北原４９０２": {
  "lat": 35.894585,
  "lon": 137.96376,
  "approx": true,
  "matched_query": "長野県上伊那郡南箕輪村字北原４９０２",
  "matched_title": "長野県南箕輪村北原"
 },
 "長野県上伊那郡南箕輪村字大林９５００": {
  "lat": 35.883694,
  "lon": 137.951065,
  "approx": true,
  "matched_query": "長野県上伊那郡南箕輪村字大林９５００",
  "matched_title": "長野県南箕輪村大芝"
 },
 "長野県上伊那郡南箕輪村字大河原５１１６－３": {
  "lat": 35.883694,
  "lon": 137.951065,
  "approx": true,
  "matched_query": "長野県上伊那郡南箕輪村字大河原５１１６－３",
  "matched_title": "長野県南箕輪村大芝"
 },
 "長野県上伊那郡南箕輪村字大河原５１３９－１": {
  "lat": 35.883694,
  "lon": 137.951065,
  "approx": true,
  "matched_query": "長野県上伊那郡南箕輪村字大河原５１３９－１",
  "matched_title": "長野県南箕輪村大芝"
 },
 "長野県上伊那郡南箕輪村字大河原５１４４": {
  "lat": 35.883694,
  "lon": 137.951065,
  "approx": true,
  "matched_query": "長野県上伊那郡南箕輪村字大河原５１４４",
  "matched_title": "長野県南箕輪村大芝"
 },
 "長野県上伊那郡南箕輪村字大泉川原２０４９－１": {
  "lat": 35.883389,
  "lon": 137.962769,
  "approx": true,
  "matched_query": "長野県上伊那郡南箕輪村字大泉川原２０４９－１",
  "matched_title": "長野県南箕輪村大泉"
 },
 "長野県上伊那郡南箕輪村字天皇１０８６－１": {
  "lat": 35.872898,
  "lon": 137.975082,
  "approx": true,
  "matched_query": "長野県上伊那郡南箕輪村字天皇１０８６－１",
  "matched_title": "長野県上伊那郡南箕輪村"
 },
 "長野県上伊那郡南箕輪村字天皇１１００": {
  "lat": 35.872898,
  "lon": 137.975082,
  "approx": true,
  "matched_query": "長野県上伊那郡南箕輪村字天皇１１００",
  "matched_title": "長野県上伊那郡南箕輪村"
 },
 "長野県上伊那郡南箕輪村字御前窪９４００‐２": {
  "lat": 35.872898,
  "lon": 137.975082,
  "approx": true,
  "matched_query": "長野県上伊那郡南箕輪村字御前窪９４００‐２",
  "matched_title": "長野県上伊那郡南箕輪村"
 },
 "長野県上伊那郡南箕輪村字日カゲ田５９８１−１": {
  "lat": 35.872898,
  "lon": 137.975082,
  "approx": true,
  "matched_query": "長野県上伊那郡南箕輪村字日カゲ田５９８１−１",
  "matched_title": "長野県上伊那郡南箕輪村"
 },
 "長野県上伊那郡南箕輪村字春日道東２５７７‐２": {
  "lat": 35.872898,
  "lon": 137.975082,
  "approx": true,
  "matched_query": "長野県上伊那郡南箕輪村字春日道東２５７７‐２",
  "matched_title": "長野県上伊那郡南箕輪村"
 },
 "長野県上伊那郡南箕輪村字東垣外３５５０": {
  "lat": 35.872898,
  "lon": 137.975082,
  "approx": true,
  "matched_query": "長野県上伊那郡南箕輪村字東垣外３５５０",
  "matched_title": "長野県上伊那郡南箕輪村"
 },
 "長野県上伊那郡南箕輪村字東垣外３５７６": {
  "lat": 35.872898,
  "lon": 137.975082,
  "approx": true,
  "matched_query": "長野県上伊那郡南箕輪村字東垣外３５７６",
  "matched_title": "長野県上伊那郡南箕輪村"
 },
 "長野県上伊那郡南箕輪村字権現８７０－４": {
  "lat": 35.872898,
  "lon": 137.975082,
  "approx": true,
  "matched_query": "長野県上伊那郡南箕輪村字権現８７０－４",
  "matched_title": "長野県上伊那郡南箕輪村"
 },
 "長野県上伊那郡南箕輪村字浅間塚３０８５－３": {
  "lat": 35.872898,
  "lon": 137.975082,
  "approx": true,
  "matched_query": "長野県上伊那郡南箕輪村字浅間塚３０８５－３",
  "matched_title": "長野県上伊那郡南箕輪村"
 },
 "長野県上伊那郡南箕輪村字渡合５１５２－１": {
  "lat": 35.872898,
  "lon": 137.975082,
  "approx": true,
  "matched_query": "長野県上伊那郡南箕輪村字渡合５１５２－１",
  "matched_title": "長野県上伊那郡南箕輪村"
 },
 "長野県上伊那郡南箕輪村字的射場８５８７": {
  "lat": 35.872898,
  "lon": 137.975082,
  "approx": true,
  "matched_query": "長野県上伊那郡南箕輪村字的射場８５８７",
  "matched_title": "長野県上伊那郡南箕輪村"
 },
 "長野県上伊那郡南箕輪村字羽場４７４７": {
  "lat": 35.872898,
  "lon": 137.975082,
  "approx": true,
  "matched_query": "長野県上伊那郡南箕輪村字羽場４７４７",
  "matched_title": "長野県上伊那郡南箕輪村"
 },
 "長野県上伊那郡南箕輪村字荒井畑１１８８－２": {
  "lat": 35.872898,
  "lon": 137.975082,
  "approx": true,
  "matched_query": "長野県上伊那郡南箕輪村字荒井畑１１８８－２",
  "matched_title": "長野県上伊那郡南箕輪村"
 },
 "長野県上伊那郡南箕輪村東川原４０４５－１": {
  "lat": 35.872898,
  "lon": 137.975082,
  "approx": true,
  "matched_query": "長野県上伊那郡南箕輪村東川原４０４５－１",
  "matched_title": "長野県上伊那郡南箕輪村"
 },
 "長野県上伊那郡南箕輪村田畑６０６０": {
  "lat": 35.864727,
  "lon": 137.979477,
  "approx": false,
  "matched_query": "長野県上伊那郡南箕輪村田畑６０６０",
  "matched_title": "長野県南箕輪村田畑６０６０番地"
 },
 "長野県上伊那郡南箕輪村１１８３－１": {
  "lat": 35.872898,
  "lon": 137.975082,
  "approx": true,
  "matched_query": "長野県上伊那郡南箕輪村１１８３－１",
  "matched_title": "長野県上伊那郡南箕輪村"
 },
 "長野県上伊那郡南箕輪村１１９４‐３": {
  "lat": 35.872898,
  "lon": 137.975082,
  "approx": true,
  "matched_query": "長野県上伊那郡南箕輪村１１９４‐３",
  "matched_title": "長野県上伊那郡南箕輪村"
 },
 "長野県上伊那郡南箕輪村１４１５－２": {
  "lat": 35.872898,
  "lon": 137.975082,
  "approx": true,
  "matched_query": "長野県上伊那郡南箕輪村１４１５－２",
  "matched_title": "長野県上伊那郡南箕輪村"
 },
 "長野県上伊那郡南箕輪村１５３５－１５": {
  "lat": 35.872898,
  "lon": 137.975082,
  "approx": true,
  "matched_query": "長野県上伊那郡南箕輪村１５３５－１５",
  "matched_title": "長野県上伊那郡南箕輪村"
 },
 "長野県上伊那郡南箕輪村１５５５－２": {
  "lat": 35.872898,
  "lon": 137.975082,
  "approx": true,
  "matched_query": "長野県上伊那郡南箕輪村１５５５－２",
  "matched_title": "長野県上伊那郡南箕輪村"
 },
 "長野県上伊那郡南箕輪村１６３０－１１２": {
  "lat": 35.872898,
  "lon": 137.975082,
  "approx": true,
  "matched_query": "長野県上伊那郡南箕輪村１６３０－１１２",
  "matched_title": "長野県上伊那郡南箕輪村"
 },
 "長野県上伊那郡南箕輪村１６３４－３４９": {
  "lat": 35.872898,
  "lon": 137.975082,
  "approx": true,
  "matched_query": "長野県上伊那郡南箕輪村１６３４－３４９",
  "matched_title": "長野県上伊那郡南箕輪村"
 },
 "長野県上伊那郡南箕輪村１９２６－１": {
  "lat": 35.872898,
  "lon": 137.975082,
  "approx": true,
  "matched_query": "長野県上伊那郡南箕輪村１９２６－１",
  "matched_title": "長野県上伊那郡南箕輪村"
 },
 "長野県上伊那郡南箕輪村１９２６－２": {
  "lat": 35.872898,
  "lon": 137.975082,
  "approx": true,
  "matched_query": "長野県上伊那郡南箕輪村１９２６－２",
  "matched_title": "長野県上伊那郡南箕輪村"
 },
 "長野県上伊那郡南箕輪村１９３２": {
  "lat": 35.872898,
  "lon": 137.975082,
  "approx": true,
  "matched_query": "長野県上伊那郡南箕輪村１９３２",
  "matched_title": "長野県上伊那郡南箕輪村"
 },
 "長野県上伊那郡南箕輪村１９８－３": {
  "lat": 35.872898,
  "lon": 137.975082,
  "approx": true,
  "matched_query": "長野県上伊那郡南箕輪村１９８－３",
  "matched_title": "長野県上伊那郡南箕輪村"
 },
 "長野県上伊那郡南箕輪村２０５１‐２": {
  "lat": 35.872898,
  "lon": 137.975082,
  "approx": true,
  "matched_query": "長野県上伊那郡南箕輪村２０５１‐２",
  "matched_title": "長野県上伊那郡南箕輪村"
 },
 "長野県上伊那郡南箕輪村２１２２": {
  "lat": 35.872898,
  "lon": 137.975082,
  "approx": true,
  "matched_query": "長野県上伊那郡南箕輪村２１２２",
  "matched_title": "長野県上伊那郡南箕輪村"
 },
 "長野県上伊那郡南箕輪村２３６４": {
  "lat": 35.872898,
  "lon": 137.975082,
  "approx": true,
  "matched_query": "長野県上伊那郡南箕輪村２３６４",
  "matched_title": "長野県上伊那郡南箕輪村"
 },
 "長野県上伊那郡南箕輪村２３８０－１０７９": {
  "lat": 35.878262,
  "lon": 137.947144,
  "approx": false,
  "matched_query": "長野県上伊那郡南箕輪村２３８０－１０７９",
  "matched_title": "長野県南箕輪村２３８０番地"
 },
 "長野県上伊那郡南箕輪村２５７４－１": {
  "lat": 35.872898,
  "lon": 137.975082,
  "approx": true,
  "matched_query": "長野県上伊那郡南箕輪村２５７４－１",
  "matched_title": "長野県上伊那郡南箕輪村"
 },
 "長野県上伊那郡南箕輪村２８８‐２": {
  "lat": 35.872898,
  "lon": 137.975082,
  "approx": true,
  "matched_query": "長野県上伊那郡南箕輪村２８８‐２",
  "matched_title": "長野県上伊那郡南箕輪村"
 },
 "長野県上伊那郡南箕輪村２９０－１": {
  "lat": 35.872898,
  "lon": 137.975082,
  "approx": true,
  "matched_query": "長野県上伊那郡南箕輪村２９０－１",
  "matched_title": "長野県上伊那郡南箕輪村"
 },
 "長野県上伊那郡南箕輪村２９４－２": {
  "lat": 35.872898,
  "lon": 137.975082,
  "approx": true,
  "matched_query": "長野県上伊那郡南箕輪村２９４－２",
  "matched_title": "長野県上伊那郡南箕輪村"
 },
 "長野県上伊那郡南箕輪村２９５": {
  "lat": 35.872898,
  "lon": 137.975082,
  "approx": true,
  "matched_query": "長野県上伊那郡南箕輪村２９５",
  "matched_title": "長野県上伊那郡南箕輪村"
 },
 "長野県上伊那郡南箕輪村３８１４": {
  "lat": 35.872898,
  "lon": 137.975082,
  "approx": true,
  "matched_query": "長野県上伊那郡南箕輪村３８１４",
  "matched_title": "長野県上伊那郡南箕輪村"
 },
 "長野県上伊那郡南箕輪村３８２１": {
  "lat": 35.872898,
  "lon": 137.975082,
  "approx": true,
  "matched_query": "長野県上伊那郡南箕輪村３８２１",
  "matched_title": "長野県上伊那郡南箕輪村"
 },
 "長野県上伊那郡南箕輪村３８８４－１": {
  "lat": 35.872898,
  "lon": 137.975082,
  "approx": true,
  "matched_query": "長野県上伊那郡南箕輪村３８８４－１",
  "matched_title": "長野県上伊那郡南箕輪村"
 },
 "長野県上伊那郡南箕輪村３９８－１": {
  "lat": 35.872898,
  "lon": 137.975082,
  "approx": true,
  "matched_query": "長野県上伊那郡南箕輪村３９８－１",
  "matched_title": "長野県上伊那郡南箕輪村"
 },
 "長野県上伊那郡南箕輪村４０７": {
  "lat": 35.872898,
  "lon": 137.975082,
  "approx": true,
  "matched_query": "長野県上伊那郡南箕輪村４０７",
  "matched_title": "長野県上伊那郡南箕輪村"
 },
 "長野県上伊那郡南箕輪村４１８２‐１": {
  "lat": 35.872898,
  "lon": 137.975082,
  "approx": true,
  "matched_query": "長野県上伊那郡南箕輪村４１８２‐１",
  "matched_title": "長野県上伊那郡南箕輪村"
 },
 "長野県上伊那郡南箕輪村４７２４": {
  "lat": 35.872898,
  "lon": 137.975082,
  "approx": true,
  "matched_query": "長野県上伊那郡南箕輪村４７２４",
  "matched_title": "長野県上伊那郡南箕輪村"
 },
 "長野県上伊那郡南箕輪村４７６４‐１４": {
  "lat": 35.872898,
  "lon": 137.975082,
  "approx": true,
  "matched_query": "長野県上伊那郡南箕輪村４７６４‐１４",
  "matched_title": "長野県上伊那郡南箕輪村"
 },
 "長野県上伊那郡南箕輪村４８２８－６": {
  "lat": 35.872898,
  "lon": 137.975082,
  "approx": true,
  "matched_query": "長野県上伊那郡南箕輪村４８２８－６",
  "matched_title": "長野県上伊那郡南箕輪村"
 },
 "長野県上伊那郡南箕輪村５０３": {
  "lat": 35.872898,
  "lon": 137.975082,
  "approx": true,
  "matched_query": "長野県上伊那郡南箕輪村５０３",
  "matched_title": "長野県上伊那郡南箕輪村"
 },
 "長野県上伊那郡南箕輪村５１３６－１": {
  "lat": 35.872898,
  "lon": 137.975082,
  "approx": true,
  "matched_query": "長野県上伊那郡南箕輪村５１３６－１",
  "matched_title": "長野県上伊那郡南箕輪村"
 },
 "長野県上伊那郡南箕輪村５１３７－１": {
  "lat": 35.872898,
  "lon": 137.975082,
  "approx": true,
  "matched_query": "長野県上伊那郡南箕輪村５１３７－１",
  "matched_title": "長野県上伊那郡南箕輪村"
 },
 "長野県上伊那郡南箕輪村５１４０－１": {
  "lat": 35.872898,
  "lon": 137.975082,
  "approx": true,
  "matched_query": "長野県上伊那郡南箕輪村５１４０－１",
  "matched_title": "長野県上伊那郡南箕輪村"
 },
 "長野県上伊那郡南箕輪村５９３３－１": {
  "lat": 35.872898,
  "lon": 137.975082,
  "approx": true,
  "matched_query": "長野県上伊那郡南箕輪村５９３３－１",
  "matched_title": "長野県上伊那郡南箕輪村"
 },
 "長野県上伊那郡南箕輪村５９８０ー１": {
  "lat": 35.872898,
  "lon": 137.975082,
  "approx": true,
  "matched_query": "長野県上伊那郡南箕輪村５９８０ー１",
  "matched_title": "長野県上伊那郡南箕輪村"
 },
 "長野県上伊那郡南箕輪村５９８２－１": {
  "lat": 35.872898,
  "lon": 137.975082,
  "approx": true,
  "matched_query": "長野県上伊那郡南箕輪村５９８２－１",
  "matched_title": "長野県上伊那郡南箕輪村"
 },
 "長野県上伊那郡南箕輪村６１５７": {
  "lat": 35.872898,
  "lon": 137.975082,
  "approx": true,
  "matched_query": "長野県上伊那郡南箕輪村６１５７",
  "matched_title": "長野県上伊那郡南箕輪村"
 },
 "長野県上伊那郡南箕輪村６１８４－１０": {
  "lat": 35.872898,
  "lon": 137.975082,
  "approx": true,
  "matched_query": "長野県上伊那郡南箕輪村６１８４－１０",
  "matched_title": "長野県上伊那郡南箕輪村"
 },
 "長野県上伊那郡南箕輪村６３９２　クワイエットヒルズ２": {
  "lat": 35.872898,
  "lon": 137.975082,
  "approx": true,
  "matched_query": "長野県上伊那郡南箕輪村６３９２　クワイエットヒルズ２",
  "matched_title": "長野県上伊那郡南箕輪村"
 },
 "長野県上伊那郡南箕輪村６４７５": {
  "lat": 35.872898,
  "lon": 137.975082,
  "approx": true,
  "matched_query": "長野県上伊那郡南箕輪村６４７５",
  "matched_title": "長野県上伊那郡南箕輪村"
 },
 "長野県上伊那郡南箕輪村７５０１‐５": {
  "lat": 35.872898,
  "lon": 137.975082,
  "approx": true,
  "matched_query": "長野県上伊那郡南箕輪村７５０１‐５",
  "matched_title": "長野県上伊那郡南箕輪村"
 },
 "長野県上伊那郡南箕輪村７７１０－１": {
  "lat": 35.872898,
  "lon": 137.975082,
  "approx": true,
  "matched_query": "長野県上伊那郡南箕輪村７７１０－１",
  "matched_title": "長野県上伊那郡南箕輪村"
 },
 "長野県上伊那郡南箕輪村８２７７－１": {
  "lat": 35.872898,
  "lon": 137.975082,
  "approx": true,
  "matched_query": "長野県上伊那郡南箕輪村８２７７－１",
  "matched_title": "長野県上伊那郡南箕輪村"
 },
 "長野県上伊那郡南箕輪村８２８７‐１": {
  "lat": 35.872898,
  "lon": 137.975082,
  "approx": true,
  "matched_query": "長野県上伊那郡南箕輪村８２８７‐１",
  "matched_title": "長野県上伊那郡南箕輪村"
 },
 "長野県上伊那郡南箕輪村８２９４ー１": {
  "lat": 35.872898,
  "lon": 137.975082,
  "approx": true,
  "matched_query": "長野県上伊那郡南箕輪村８２９４ー１",
  "matched_title": "長野県上伊那郡南箕輪村"
 },
 "長野県上伊那郡南箕輪村８３０６‐２０３８（番地未確定）": {
  "lat": 35.861214,
  "lon": 137.934738,
  "approx": false,
  "matched_query": "長野県上伊那郡南箕輪村８３０６‐２０３８（番地未確定）",
  "matched_title": "長野県南箕輪村８３０６番地"
 },
 "長野県上伊那郡南箕輪村８３０６－２０４４": {
  "lat": 35.861214,
  "lon": 137.934738,
  "approx": false,
  "matched_query": "長野県上伊那郡南箕輪村８３０６－２０４４",
  "matched_title": "長野県南箕輪村８３０６番地"
 },
 "長野県上伊那郡南箕輪村８３０６－２０５０": {
  "lat": 35.861214,
  "lon": 137.934738,
  "approx": false,
  "matched_query": "長野県上伊那郡南箕輪村８３０６－２０５０",
  "matched_title": "長野県南箕輪村８３０６番地"
 },
 "長野県上伊那郡南箕輪村８６６－３": {
  "lat": 35.872898,
  "lon": 137.975082,
  "approx": true,
  "matched_query": "長野県上伊那郡南箕輪村８６６－３",
  "matched_title": "長野県上伊那郡南箕輪村"
 },
 "長野県上伊那郡南箕輪村８７８－１": {
  "lat": 35.872898,
  "lon": 137.975082,
  "approx": true,
  "matched_query": "長野県上伊那郡南箕輪村８７８－１",
  "matched_title": "長野県上伊那郡南箕輪村"
 },
 "長野県上伊那郡南箕輪村８９２８": {
  "lat": 35.872898,
  "lon": 137.975082,
  "approx": true,
  "matched_query": "長野県上伊那郡南箕輪村８９２８",
  "matched_title": "長野県上伊那郡南箕輪村"
 },
 "長野県上伊那郡南箕輪村９２４１": {
  "lat": 35.872898,
  "lon": 137.975082,
  "approx": true,
  "matched_query": "長野県上伊那郡南箕輪村９２４１",
  "matched_title": "長野県上伊那郡南箕輪村"
 },
 "長野県上伊那郡南箕輪村９２６２": {
  "lat": 35.872898,
  "lon": 137.975082,
  "approx": true,
  "matched_query": "長野県上伊那郡南箕輪村９２６２",
  "matched_title": "長野県上伊那郡南箕輪村"
 },
 "長野県上伊那郡南箕輪村９５９－１": {
  "lat": 35.872898,
  "lon": 137.975082,
  "approx": true,
  "matched_query": "長野県上伊那郡南箕輪村９５９－１",
  "matched_title": "長野県上伊那郡南箕輪村"
 },
 "長野県上伊那郡南箕輪村９６００‐１": {
  "lat": 35.872898,
  "lon": 137.975082,
  "approx": true,
  "matched_query": "長野県上伊那郡南箕輪村９６００‐１",
  "matched_title": "長野県上伊那郡南箕輪村"
 },
 "長野県上伊那郡南箕輪村９６７４‐３": {
  "lat": 35.872898,
  "lon": 137.975082,
  "approx": true,
  "matched_query": "長野県上伊那郡南箕輪村９６７４‐３",
  "matched_title": "長野県上伊那郡南箕輪村"
 },
 "長野県上伊那郡南箕輪村９６９１－１（住居表示未確定）": {
  "lat": 35.872898,
  "lon": 137.975082,
  "approx": true,
  "matched_query": "長野県上伊那郡南箕輪村９６９１－１（住居表示未確定）",
  "matched_title": "長野県上伊那郡南箕輪村"
 },
 "長野県上伊那郡南箕輪村９６９４－１": {
  "lat": 35.872898,
  "lon": 137.975082,
  "approx": true,
  "matched_query": "長野県上伊那郡南箕輪村９６９４－１",
  "matched_title": "長野県上伊那郡南箕輪村"
 },
 "長野県上伊那郡南箕輪村９７０８－６": {
  "lat": 35.872898,
  "lon": 137.975082,
  "approx": true,
  "matched_query": "長野県上伊那郡南箕輪村９７０８－６",
  "matched_title": "長野県上伊那郡南箕輪村"
 },
 "長野県上伊那郡宮田村南割３７１４－３": {
  "lat": 35.760563,
  "lon": 137.928177,
  "approx": true,
  "matched_query": "長野県上伊那郡宮田村南割３７１４－３",
  "matched_title": "長野県宮田村南割"
 },
 "長野県上伊那郡宮田村大田切５１４７": {
  "lat": 35.751034,
  "lon": 137.937546,
  "approx": true,
  "matched_query": "長野県上伊那郡宮田村大田切５１４７",
  "matched_title": "長野県宮田村大田切"
 },
 "長野県上伊那郡宮田村宮田村一円１５１６": {
  "lat": 35.76889,
  "lon": 137.944443,
  "approx": true,
  "matched_query": "長野県上伊那郡宮田村宮田村一円１５１６",
  "matched_title": "長野県上伊那郡宮田村"
 },
 "長野県上伊那郡宮田村宮田村３４１８": {
  "lat": 35.76889,
  "lon": 137.944443,
  "approx": true,
  "matched_query": "長野県上伊那郡宮田村宮田村３４１８",
  "matched_title": "長野県上伊那郡宮田村"
 },
 "長野県上伊那郡宮田村宮田村３９６９－１": {
  "lat": 35.76889,
  "lon": 137.944443,
  "approx": true,
  "matched_query": "長野県上伊那郡宮田村宮田村３９６９－１",
  "matched_title": "長野県上伊那郡宮田村"
 },
 "長野県上伊那郡宮田村宮田村５２８９－５": {
  "lat": 35.76889,
  "lon": 137.944443,
  "approx": true,
  "matched_query": "長野県上伊那郡宮田村宮田村５２８９－５",
  "matched_title": "長野県上伊那郡宮田村"
 },
 "長野県上伊那郡宮田村宮田村５４１５": {
  "lat": 35.76889,
  "lon": 137.944443,
  "approx": true,
  "matched_query": "長野県上伊那郡宮田村宮田村５４１５",
  "matched_title": "長野県上伊那郡宮田村"
 },
 "長野県上伊那郡宮田村宮田村５４３９－１": {
  "lat": 35.76889,
  "lon": 137.944443,
  "approx": true,
  "matched_query": "長野県上伊那郡宮田村宮田村５４３９－１",
  "matched_title": "長野県上伊那郡宮田村"
 },
 "長野県上伊那郡宮田村宮田村６２９４－１": {
  "lat": 35.76889,
  "lon": 137.944443,
  "approx": true,
  "matched_query": "長野県上伊那郡宮田村宮田村６２９４－１",
  "matched_title": "長野県上伊那郡宮田村"
 },
 "長野県上伊那郡宮田村宮田村６８５８－１": {
  "lat": 35.76889,
  "lon": 137.944443,
  "approx": true,
  "matched_query": "長野県上伊那郡宮田村宮田村６８５８－１",
  "matched_title": "長野県上伊那郡宮田村"
 },
 "長野県上伊那郡宮田村新田２０５３－７": {
  "lat": 35.75375,
  "lon": 137.917053,
  "approx": true,
  "matched_query": "長野県上伊那郡宮田村新田２０５３－７",
  "matched_title": "長野県宮田村新田"
 },
 "長野県上伊那郡宮田村１５１９": {
  "lat": 35.76889,
  "lon": 137.944443,
  "approx": true,
  "matched_query": "長野県上伊那郡宮田村１５１９",
  "matched_title": "長野県上伊那郡宮田村"
 },
 "長野県上伊那郡宮田村１９３４－５": {
  "lat": 35.751209,
  "lon": 137.911728,
  "approx": false,
  "matched_query": "長野県上伊那郡宮田村１９３４－５",
  "matched_title": "長野県宮田村１９３４番地"
 },
 "長野県上伊那郡宮田村２２１６－３": {
  "lat": 35.76889,
  "lon": 137.944443,
  "approx": true,
  "matched_query": "長野県上伊那郡宮田村２２１６－３",
  "matched_title": "長野県上伊那郡宮田村"
 },
 "長野県上伊那郡宮田村２８４４": {
  "lat": 35.76889,
  "lon": 137.944443,
  "approx": true,
  "matched_query": "長野県上伊那郡宮田村２８４４",
  "matched_title": "長野県上伊那郡宮田村"
 },
 "長野県上伊那郡宮田村３３７８‐１": {
  "lat": 35.76889,
  "lon": 137.944443,
  "approx": true,
  "matched_query": "長野県上伊那郡宮田村３３７８‐１",
  "matched_title": "長野県上伊那郡宮田村"
 },
 "長野県上伊那郡宮田村３４１４－１": {
  "lat": 35.76889,
  "lon": 137.944443,
  "approx": true,
  "matched_query": "長野県上伊那郡宮田村３４１４－１",
  "matched_title": "長野県上伊那郡宮田村"
 },
 "長野県上伊那郡宮田村３９６９－３": {
  "lat": 35.76889,
  "lon": 137.944443,
  "approx": true,
  "matched_query": "長野県上伊那郡宮田村３９６９－３",
  "matched_title": "長野県上伊那郡宮田村"
 },
 "長野県上伊那郡宮田村４４３７‐１": {
  "lat": 35.76889,
  "lon": 137.944443,
  "approx": true,
  "matched_query": "長野県上伊那郡宮田村４４３７‐１",
  "matched_title": "長野県上伊那郡宮田村"
 },
 "長野県上伊那郡宮田村４７５０－４": {
  "lat": 35.76889,
  "lon": 137.944443,
  "approx": true,
  "matched_query": "長野県上伊那郡宮田村４７５０－４",
  "matched_title": "長野県上伊那郡宮田村"
 },
 "長野県上伊那郡宮田村４７５２－３": {
  "lat": 35.76889,
  "lon": 137.944443,
  "approx": true,
  "matched_query": "長野県上伊那郡宮田村４７５２－３",
  "matched_title": "長野県上伊那郡宮田村"
 },
 "長野県上伊那郡宮田村５２７９－８": {
  "lat": 35.76889,
  "lon": 137.944443,
  "approx": true,
  "matched_query": "長野県上伊那郡宮田村５２７９－８",
  "matched_title": "長野県上伊那郡宮田村"
 },
 "長野県上伊那郡宮田村５２８７－８": {
  "lat": 35.76889,
  "lon": 137.944443,
  "approx": true,
  "matched_query": "長野県上伊那郡宮田村５２８７－８",
  "matched_title": "長野県上伊那郡宮田村"
 },
 "長野県上伊那郡宮田村５３３９ー１": {
  "lat": 35.76889,
  "lon": 137.944443,
  "approx": true,
  "matched_query": "長野県上伊那郡宮田村５３３９ー１",
  "matched_title": "長野県上伊那郡宮田村"
 },
 "長野県上伊那郡宮田村５３５２－１０": {
  "lat": 35.76889,
  "lon": 137.944443,
  "approx": true,
  "matched_query": "長野県上伊那郡宮田村５３５２－１０",
  "matched_title": "長野県上伊那郡宮田村"
 },
 "長野県上伊那郡宮田村５４５０－１": {
  "lat": 35.752953,
  "lon": 137.957062,
  "approx": false,
  "matched_query": "長野県上伊那郡宮田村５４５０－１",
  "matched_title": "長野県宮田村５４５０番地"
 },
 "長野県上伊那郡宮田村５４５０－４５": {
  "lat": 35.752953,
  "lon": 137.957062,
  "approx": false,
  "matched_query": "長野県上伊那郡宮田村５４５０－４５",
  "matched_title": "長野県宮田村５４５０番地"
 },
 "長野県上伊那郡宮田村６０７７－１９": {
  "lat": 35.76889,
  "lon": 137.944443,
  "approx": true,
  "matched_query": "長野県上伊那郡宮田村６０７７－１９",
  "matched_title": "長野県上伊那郡宮田村"
 },
 "長野県上伊那郡宮田村６１１１－１７": {
  "lat": 35.76889,
  "lon": 137.944443,
  "approx": true,
  "matched_query": "長野県上伊那郡宮田村６１１１－１７",
  "matched_title": "長野県上伊那郡宮田村"
 },
 "長野県上伊那郡宮田村６１７６": {
  "lat": 35.76889,
  "lon": 137.944443,
  "approx": true,
  "matched_query": "長野県上伊那郡宮田村６１７６",
  "matched_title": "長野県上伊那郡宮田村"
 },
 "長野県上伊那郡宮田村６２１０－１": {
  "lat": 35.76889,
  "lon": 137.944443,
  "approx": true,
  "matched_query": "長野県上伊那郡宮田村６２１０－１",
  "matched_title": "長野県上伊那郡宮田村"
 },
 "長野県上伊那郡宮田村６３３２－１": {
  "lat": 35.76889,
  "lon": 137.944443,
  "approx": true,
  "matched_query": "長野県上伊那郡宮田村６３３２－１",
  "matched_title": "長野県上伊那郡宮田村"
 },
 "長野県上伊那郡宮田村６３６３－１": {
  "lat": 35.76889,
  "lon": 137.944443,
  "approx": true,
  "matched_query": "長野県上伊那郡宮田村６３６３－１",
  "matched_title": "長野県上伊那郡宮田村"
 },
 "長野県上伊那郡宮田村６３７２－１（１区画目）（番地未確定）": {
  "lat": 35.76889,
  "lon": 137.944443,
  "approx": true,
  "matched_query": "長野県上伊那郡宮田村６３７２－１（１区画目）（番地未確定）",
  "matched_title": "長野県上伊那郡宮田村"
 },
 "長野県上伊那郡宮田村６３７２－１（２区画目）（番地未確定）": {
  "lat": 35.76889,
  "lon": 137.944443,
  "approx": true,
  "matched_query": "長野県上伊那郡宮田村６３７２－１（２区画目）（番地未確定）",
  "matched_title": "長野県上伊那郡宮田村"
 },
 "長野県上伊那郡宮田村６３７２－１（３区画目）（番地未確定）": {
  "lat": 35.76889,
  "lon": 137.944443,
  "approx": true,
  "matched_query": "長野県上伊那郡宮田村６３７２－１（３区画目）（番地未確定）",
  "matched_title": "長野県上伊那郡宮田村"
 },
 "長野県上伊那郡宮田村６５５－７": {
  "lat": 35.76889,
  "lon": 137.944443,
  "approx": true,
  "matched_query": "長野県上伊那郡宮田村６５５－７",
  "matched_title": "長野県上伊那郡宮田村"
 },
 "長野県上伊那郡宮田村６６３３－１": {
  "lat": 35.76889,
  "lon": 137.944443,
  "approx": true,
  "matched_query": "長野県上伊那郡宮田村６６３３－１",
  "matched_title": "長野県上伊那郡宮田村"
 },
 "長野県上伊那郡宮田村６６４５": {
  "lat": 35.76889,
  "lon": 137.944443,
  "approx": true,
  "matched_query": "長野県上伊那郡宮田村６６４５",
  "matched_title": "長野県上伊那郡宮田村"
 },
 "長野県上伊那郡宮田村６６８９－１": {
  "lat": 35.76889,
  "lon": 137.944443,
  "approx": true,
  "matched_query": "長野県上伊那郡宮田村６６８９－１",
  "matched_title": "長野県上伊那郡宮田村"
 },
 "長野県上伊那郡宮田村６７３": {
  "lat": 35.76889,
  "lon": 137.944443,
  "approx": true,
  "matched_query": "長野県上伊那郡宮田村６７３",
  "matched_title": "長野県上伊那郡宮田村"
 },
 "長野県上伊那郡宮田村６８４９": {
  "lat": 35.76889,
  "lon": 137.944443,
  "approx": true,
  "matched_query": "長野県上伊那郡宮田村６８４９",
  "matched_title": "長野県上伊那郡宮田村"
 },
 "長野県上伊那郡宮田村６８６１‐１（複数需要場所）": {
  "lat": 35.76889,
  "lon": 137.944443,
  "approx": true,
  "matched_query": "長野県上伊那郡宮田村６８６１‐１（複数需要場所）",
  "matched_title": "長野県上伊那郡宮田村"
 },
 "長野県上伊那郡宮田村７４０７－１": {
  "lat": 35.76889,
  "lon": 137.944443,
  "approx": true,
  "matched_query": "長野県上伊那郡宮田村７４０７－１",
  "matched_title": "長野県上伊那郡宮田村"
 },
 "長野県上伊那郡宮田村７４６３－２": {
  "lat": 35.76889,
  "lon": 137.944443,
  "approx": true,
  "matched_query": "長野県上伊那郡宮田村７４６３－２",
  "matched_title": "長野県上伊那郡宮田村"
 },
 "長野県上伊那郡宮田村７４６３－９": {
  "lat": 35.76889,
  "lon": 137.944443,
  "approx": true,
  "matched_query": "長野県上伊那郡宮田村７４６３－９",
  "matched_title": "長野県上伊那郡宮田村"
 },
 "長野県上伊那郡宮田村７５７６‐８": {
  "lat": 35.76889,
  "lon": 137.944443,
  "approx": true,
  "matched_query": "長野県上伊那郡宮田村７５７６‐８",
  "matched_title": "長野県上伊那郡宮田村"
 },
 "長野県上伊那郡宮田村８０３": {
  "lat": 35.76889,
  "lon": 137.944443,
  "approx": true,
  "matched_query": "長野県上伊那郡宮田村８０３",
  "matched_title": "長野県上伊那郡宮田村"
 },
 "長野県上伊那郡宮田村８３－１": {
  "lat": 35.76889,
  "lon": 137.944443,
  "approx": true,
  "matched_query": "長野県上伊那郡宮田村８３－１",
  "matched_title": "長野県上伊那郡宮田村"
 },
 "長野県上伊那郡箕輪町三日町字中島１１５２－１": {
  "lat": 35.902493,
  "lon": 138.009872,
  "approx": true,
  "matched_query": "長野県上伊那郡箕輪町三日町字中島１１５２－１",
  "matched_title": "長野県箕輪町三日町"
 },
 "長野県上伊那郡箕輪町三日町字坂頭３０５－１": {
  "lat": 35.902493,
  "lon": 138.009872,
  "approx": true,
  "matched_query": "長野県上伊那郡箕輪町三日町字坂頭３０５－１",
  "matched_title": "長野県箕輪町三日町"
 },
 "長野県上伊那郡箕輪町三日町字城安寺８５９－１": {
  "lat": 35.902493,
  "lon": 138.009872,
  "approx": true,
  "matched_query": "長野県上伊那郡箕輪町三日町字城安寺８５９－１",
  "matched_title": "長野県箕輪町三日町"
 },
 "長野県上伊那郡箕輪町三日町字城安寺８５９－２": {
  "lat": 35.902493,
  "lon": 138.009872,
  "approx": true,
  "matched_query": "長野県上伊那郡箕輪町三日町字城安寺８５９－２",
  "matched_title": "長野県箕輪町三日町"
 },
 "長野県上伊那郡箕輪町三日町字大平９－２": {
  "lat": 35.902493,
  "lon": 138.009872,
  "approx": true,
  "matched_query": "長野県上伊那郡箕輪町三日町字大平９－２",
  "matched_title": "長野県箕輪町三日町"
 },
 "長野県上伊那郡箕輪町三日町字裏町１７１６－３": {
  "lat": 35.902493,
  "lon": 138.009872,
  "approx": true,
  "matched_query": "長野県上伊那郡箕輪町三日町字裏町１７１６－３",
  "matched_title": "長野県箕輪町三日町"
 },
 "長野県上伊那郡箕輪町三日町１０８３－３": {
  "lat": 35.902493,
  "lon": 138.009872,
  "approx": true,
  "matched_query": "長野県上伊那郡箕輪町三日町１０８３－３",
  "matched_title": "長野県箕輪町三日町"
 },
 "長野県上伊那郡箕輪町三日町１０８４－３": {
  "lat": 35.902493,
  "lon": 138.009872,
  "approx": true,
  "matched_query": "長野県上伊那郡箕輪町三日町１０８４－３",
  "matched_title": "長野県箕輪町三日町"
 },
 "長野県上伊那郡箕輪町三日町１０９０‐１０": {
  "lat": 35.902493,
  "lon": 138.009872,
  "approx": true,
  "matched_query": "長野県上伊那郡箕輪町三日町１０９０‐１０",
  "matched_title": "長野県箕輪町三日町"
 },
 "長野県上伊那郡箕輪町三日町１０９９－３": {
  "lat": 35.902493,
  "lon": 138.009872,
  "approx": true,
  "matched_query": "長野県上伊那郡箕輪町三日町１０９９－３",
  "matched_title": "長野県箕輪町三日町"
 },
 "長野県上伊那郡箕輪町三日町１１５３－１": {
  "lat": 35.902493,
  "lon": 138.009872,
  "approx": true,
  "matched_query": "長野県上伊那郡箕輪町三日町１１５３－１",
  "matched_title": "長野県箕輪町三日町"
 },
 "長野県上伊那郡箕輪町三日町１３７２－１": {
  "lat": 35.896343,
  "lon": 137.993912,
  "approx": false,
  "matched_query": "長野県上伊那郡箕輪町三日町１３７２－１",
  "matched_title": "長野県箕輪町三日町１３７２番地"
 },
 "長野県上伊那郡箕輪町三日町１６２３－１": {
  "lat": 35.902493,
  "lon": 138.009872,
  "approx": true,
  "matched_query": "長野県上伊那郡箕輪町三日町１６２３－１",
  "matched_title": "長野県箕輪町三日町"
 },
 "長野県上伊那郡箕輪町三日町１６６０－３": {
  "lat": 35.897926,
  "lon": 137.994934,
  "approx": false,
  "matched_query": "長野県上伊那郡箕輪町三日町１６６０－３",
  "matched_title": "長野県箕輪町三日町１６６０番地"
 },
 "長野県上伊那郡箕輪町三日町１６９９－３": {
  "lat": 35.902493,
  "lon": 138.009872,
  "approx": true,
  "matched_query": "長野県上伊那郡箕輪町三日町１６９９－３",
  "matched_title": "長野県箕輪町三日町"
 },
 "長野県上伊那郡箕輪町三日町１６９９－５": {
  "lat": 35.902493,
  "lon": 138.009872,
  "approx": true,
  "matched_query": "長野県上伊那郡箕輪町三日町１６９９－５",
  "matched_title": "長野県箕輪町三日町"
 },
 "長野県上伊那郡箕輪町三日町１７０７－１": {
  "lat": 35.902493,
  "lon": 138.009872,
  "approx": true,
  "matched_query": "長野県上伊那郡箕輪町三日町１７０７－１",
  "matched_title": "長野県箕輪町三日町"
 },
 "長野県上伊那郡箕輪町三日町１７１６－２": {
  "lat": 35.902493,
  "lon": 138.009872,
  "approx": true,
  "matched_query": "長野県上伊那郡箕輪町三日町１７１６－２",
  "matched_title": "長野県箕輪町三日町"
 },
 "長野県上伊那郡箕輪町三日町４６６": {
  "lat": 35.902493,
  "lon": 138.009872,
  "approx": true,
  "matched_query": "長野県上伊那郡箕輪町三日町４６６",
  "matched_title": "長野県箕輪町三日町"
 },
 "長野県上伊那郡箕輪町三日町６４４－２": {
  "lat": 35.902493,
  "lon": 138.009872,
  "approx": true,
  "matched_query": "長野県上伊那郡箕輪町三日町６４４－２",
  "matched_title": "長野県箕輪町三日町"
 },
 "長野県上伊那郡箕輪町三日町６５５": {
  "lat": 35.906277,
  "lon": 137.994507,
  "approx": false,
  "matched_query": "長野県上伊那郡箕輪町三日町６５５",
  "matched_title": "長野県箕輪町三日町６５５番地"
 },
 "長野県上伊那郡箕輪町三日町８６１－２": {
  "lat": 35.902493,
  "lon": 138.009872,
  "approx": true,
  "matched_query": "長野県上伊那郡箕輪町三日町８６１－２",
  "matched_title": "長野県箕輪町三日町"
 },
 "長野県上伊那郡箕輪町三日町８７１－１": {
  "lat": 35.902493,
  "lon": 138.009872,
  "approx": true,
  "matched_query": "長野県上伊那郡箕輪町三日町８７１－１",
  "matched_title": "長野県箕輪町三日町"
 },
 "長野県上伊那郡箕輪町三日町８９５‐１": {
  "lat": 35.893532,
  "lon": 137.990173,
  "approx": false,
  "matched_query": "長野県上伊那郡箕輪町三日町８９５‐１",
  "matched_title": "長野県箕輪町三日町８９５番地"
 },
 "長野県上伊那郡箕輪町三日町９３３－１": {
  "lat": 35.891804,
  "lon": 137.988434,
  "approx": false,
  "matched_query": "長野県上伊那郡箕輪町三日町９３３－１",
  "matched_title": "長野県箕輪町三日町９３３番地"
 },
 "長野県上伊那郡箕輪町中曽根字神田５４２－１": {
  "lat": 35.906963,
  "lon": 137.950455,
  "approx": true,
  "matched_query": "長野県上伊那郡箕輪町中曽根字神田５４２－１",
  "matched_title": "長野県箕輪町中曽根"
 },
 "長野県上伊那郡箕輪町中曽根字神田５４２－５": {
  "lat": 35.906963,
  "lon": 137.950455,
  "approx": true,
  "matched_query": "長野県上伊那郡箕輪町中曽根字神田５４２－５",
  "matched_title": "長野県箕輪町中曽根"
 },
 "長野県上伊那郡箕輪町中曽根２８６－３": {
  "lat": 35.906963,
  "lon": 137.950455,
  "approx": true,
  "matched_query": "長野県上伊那郡箕輪町中曽根２８６－３",
  "matched_title": "長野県箕輪町中曽根"
 },
 "長野県上伊那郡箕輪町中曽根４０２－３": {
  "lat": 35.908066,
  "lon": 137.943588,
  "approx": false,
  "matched_query": "長野県上伊那郡箕輪町中曽根４０２－３",
  "matched_title": "長野県箕輪町中曽根４０２番地"
 },
 "長野県上伊那郡箕輪町中箕輪一の宮１６１７１－２": {
  "lat": 35.910133,
  "lon": 137.953812,
  "approx": true,
  "matched_query": "長野県上伊那郡箕輪町中箕輪一の宮１６１７１－２",
  "matched_title": "長野県箕輪町中箕輪一の宮１４４３番地"
 },
 "長野県上伊那郡箕輪町中箕輪一の宮１６１７１－３": {
  "lat": 35.910133,
  "lon": 137.953812,
  "approx": true,
  "matched_query": "長野県上伊那郡箕輪町中箕輪一の宮１６１７１－３",
  "matched_title": "長野県箕輪町中箕輪一の宮１４４３番地"
 },
 "長野県上伊那郡箕輪町中箕輪五斗山７４０７－８８": {
  "lat": 35.924355,
  "lon": 137.938675,
  "approx": true,
  "matched_query": "長野県上伊那郡箕輪町中箕輪五斗山７４０７－８８",
  "matched_title": "長野県箕輪町中箕輪"
 },
 "長野県上伊那郡箕輪町中箕輪南城１３４１７－１": {
  "lat": 35.924355,
  "lon": 137.938675,
  "approx": true,
  "matched_query": "長野県上伊那郡箕輪町中箕輪南城１３４１７－１",
  "matched_title": "長野県箕輪町中箕輪"
 },
 "長野県上伊那郡箕輪町中箕輪南城１３４１７－２": {
  "lat": 35.924355,
  "lon": 137.938675,
  "approx": true,
  "matched_query": "長野県上伊那郡箕輪町中箕輪南城１３４１７－２",
  "matched_title": "長野県箕輪町中箕輪"
 },
 "長野県上伊那郡箕輪町中箕輪字一の宮１６１７３－１": {
  "lat": 35.910133,
  "lon": 137.953812,
  "approx": true,
  "matched_query": "長野県上伊那郡箕輪町中箕輪字一の宮１６１７３－１",
  "matched_title": "長野県箕輪町中箕輪一の宮１４４３番地"
 },
 "長野県上伊那郡箕輪町中箕輪字北原２０３４－１２４": {
  "lat": 35.924355,
  "lon": 137.938675,
  "approx": true,
  "matched_query": "長野県上伊那郡箕輪町中箕輪字北原２０３４－１２４",
  "matched_title": "長野県箕輪町中箕輪"
 },
 "長野県上伊那郡箕輪町中箕輪字北垣外１４８００－１０": {
  "lat": 35.924355,
  "lon": 137.938675,
  "approx": true,
  "matched_query": "長野県上伊那郡箕輪町中箕輪字北垣外１４８００－１０",
  "matched_title": "長野県箕輪町中箕輪"
 },
 "長野県上伊那郡箕輪町中箕輪字北垣外１４８００－４２": {
  "lat": 35.924355,
  "lon": 137.938675,
  "approx": true,
  "matched_query": "長野県上伊那郡箕輪町中箕輪字北垣外１４８００－４２",
  "matched_title": "長野県箕輪町中箕輪"
 },
 "長野県上伊那郡箕輪町中箕輪字北垣外１４８００－８": {
  "lat": 35.924355,
  "lon": 137.938675,
  "approx": true,
  "matched_query": "長野県上伊那郡箕輪町中箕輪字北垣外１４８００－８",
  "matched_title": "長野県箕輪町中箕輪"
 },
 "長野県上伊那郡箕輪町中箕輪字南林６９８２－１": {
  "lat": 35.924355,
  "lon": 137.938675,
  "approx": true,
  "matched_query": "長野県上伊那郡箕輪町中箕輪字南林６９８２－１",
  "matched_title": "長野県箕輪町中箕輪"
 },
 "長野県上伊那郡箕輪町中箕輪字和手村１５４５６": {
  "lat": 35.924355,
  "lon": 137.938675,
  "approx": true,
  "matched_query": "長野県上伊那郡箕輪町中箕輪字和手村１５４５６",
  "matched_title": "長野県箕輪町中箕輪"
 },
 "長野県上伊那郡箕輪町中箕輪字宮ノ上１５１０－２": {
  "lat": 35.924355,
  "lon": 137.938675,
  "approx": true,
  "matched_query": "長野県上伊那郡箕輪町中箕輪字宮ノ上１５１０－２",
  "matched_title": "長野県箕輪町中箕輪"
 },
 "長野県上伊那郡箕輪町中箕輪字宮南３０９７－１": {
  "lat": 35.924355,
  "lon": 137.938675,
  "approx": true,
  "matched_query": "長野県上伊那郡箕輪町中箕輪字宮南３０９７－１",
  "matched_title": "長野県箕輪町中箕輪"
 },
 "長野県上伊那郡箕輪町中箕輪字小原１４２００－４４８": {
  "lat": 35.924355,
  "lon": 137.938675,
  "approx": true,
  "matched_query": "長野県上伊那郡箕輪町中箕輪字小原１４２００－４４８",
  "matched_title": "長野県箕輪町中箕輪"
 },
 "長野県上伊那郡箕輪町中箕輪字山口３７３０－５１２": {
  "lat": 35.924355,
  "lon": 137.938675,
  "approx": true,
  "matched_query": "長野県上伊那郡箕輪町中箕輪字山口３７３０－５１２",
  "matched_title": "長野県箕輪町中箕輪"
 },
 "長野県上伊那郡箕輪町中箕輪字新田下１０５００－４": {
  "lat": 35.924355,
  "lon": 137.938675,
  "approx": true,
  "matched_query": "長野県上伊那郡箕輪町中箕輪字新田下１０５００－４",
  "matched_title": "長野県箕輪町中箕輪"
 },
 "長野県上伊那郡箕輪町中箕輪字椚林１４１０４－１": {
  "lat": 35.924355,
  "lon": 137.938675,
  "approx": true,
  "matched_query": "長野県上伊那郡箕輪町中箕輪字椚林１４１０４－１",
  "matched_title": "長野県箕輪町中箕輪"
 },
 "長野県上伊那郡箕輪町中箕輪字樋久保１７９８": {
  "lat": 35.924355,
  "lon": 137.938675,
  "approx": true,
  "matched_query": "長野県上伊那郡箕輪町中箕輪字樋久保１７９８",
  "matched_title": "長野県箕輪町中箕輪"
 },
 "長野県上伊那郡箕輪町中箕輪字権現久保１４７５４－１": {
  "lat": 35.924355,
  "lon": 137.938675,
  "approx": true,
  "matched_query": "長野県上伊那郡箕輪町中箕輪字権現久保１４７５４－１",
  "matched_title": "長野県箕輪町中箕輪"
 },
 "長野県上伊那郡箕輪町中箕輪字橋場８５６８－３": {
  "lat": 35.924355,
  "lon": 137.938675,
  "approx": true,
  "matched_query": "長野県上伊那郡箕輪町中箕輪字橋場８５６８－３",
  "matched_title": "長野県箕輪町中箕輪"
 },
 "長野県上伊那郡箕輪町中箕輪字溝畑１５５８－１": {
  "lat": 35.924355,
  "lon": 137.938675,
  "approx": true,
  "matched_query": "長野県上伊那郡箕輪町中箕輪字溝畑１５５８－１",
  "matched_title": "長野県箕輪町中箕輪"
 },
 "長野県上伊那郡箕輪町中箕輪字神の木３０２８－１": {
  "lat": 35.924355,
  "lon": 137.938675,
  "approx": true,
  "matched_query": "長野県上伊那郡箕輪町中箕輪字神の木３０２８－１",
  "matched_title": "長野県箕輪町中箕輪"
 },
 "長野県上伊那郡箕輪町中箕輪字鉄砲島８８９５－３": {
  "lat": 35.924355,
  "lon": 137.938675,
  "approx": true,
  "matched_query": "長野県上伊那郡箕輪町中箕輪字鉄砲島８８９５－３",
  "matched_title": "長野県箕輪町中箕輪"
 },
 "長野県上伊那郡箕輪町中箕輪字雨堀３４４０－１": {
  "lat": 35.924355,
  "lon": 137.938675,
  "approx": true,
  "matched_query": "長野県上伊那郡箕輪町中箕輪字雨堀３４４０－１",
  "matched_title": "長野県箕輪町中箕輪"
 },
 "長野県上伊那郡箕輪町中箕輪字雨堀３４４０－３": {
  "lat": 35.924355,
  "lon": 137.938675,
  "approx": true,
  "matched_query": "長野県上伊那郡箕輪町中箕輪字雨堀３４４０－３",
  "matched_title": "長野県箕輪町中箕輪"
 },
 "長野県上伊那郡箕輪町中箕輪官林１３８３５－３": {
  "lat": 35.924355,
  "lon": 137.938675,
  "approx": true,
  "matched_query": "長野県上伊那郡箕輪町中箕輪官林１３８３５－３",
  "matched_title": "長野県箕輪町中箕輪"
 },
 "長野県上伊那郡箕輪町中箕輪沢２８５２－１": {
  "lat": 35.932587,
  "lon": 137.98288,
  "approx": true,
  "matched_query": "長野県上伊那郡箕輪町中箕輪沢２８５２－１",
  "matched_title": "長野県箕輪町中箕輪沢１０００番地"
 },
 "長野県上伊那郡箕輪町中箕輪西原３１６２－８": {
  "lat": 35.924355,
  "lon": 137.938675,
  "approx": true,
  "matched_query": "長野県上伊那郡箕輪町中箕輪西原３１６２－８",
  "matched_title": "長野県箕輪町中箕輪"
 },
 "長野県上伊那郡箕輪町中箕輪１０３３７‐２　タウン箕輪": {
  "lat": 35.924355,
  "lon": 137.938675,
  "approx": true,
  "matched_query": "長野県上伊那郡箕輪町中箕輪１０３３７‐２　タウン箕輪",
  "matched_title": "長野県箕輪町中箕輪"
 },
 "長野県上伊那郡箕輪町中箕輪１０３４３‐１": {
  "lat": 35.924355,
  "lon": 137.938675,
  "approx": true,
  "matched_query": "長野県上伊那郡箕輪町中箕輪１０３４３‐１",
  "matched_title": "長野県箕輪町中箕輪"
 },
 "長野県上伊那郡箕輪町中箕輪１０５９４－１": {
  "lat": 35.924355,
  "lon": 137.938675,
  "approx": true,
  "matched_query": "長野県上伊那郡箕輪町中箕輪１０５９４－１",
  "matched_title": "長野県箕輪町中箕輪"
 },
 "長野県上伊那郡箕輪町中箕輪１０７０２－４": {
  "lat": 35.924355,
  "lon": 137.938675,
  "approx": true,
  "matched_query": "長野県上伊那郡箕輪町中箕輪１０７０２－４",
  "matched_title": "長野県箕輪町中箕輪"
 },
 "長野県上伊那郡箕輪町中箕輪１０８００－１３９": {
  "lat": 35.913513,
  "lon": 137.968369,
  "approx": false,
  "matched_query": "長野県上伊那郡箕輪町中箕輪１０８００－１３９",
  "matched_title": "長野県箕輪町中箕輪１０８００番地"
 },
 "長野県上伊那郡箕輪町中箕輪１０８３１－２": {
  "lat": 35.924355,
  "lon": 137.938675,
  "approx": true,
  "matched_query": "長野県上伊那郡箕輪町中箕輪１０８３１－２",
  "matched_title": "長野県箕輪町中箕輪"
 },
 "長野県上伊那郡箕輪町中箕輪１１２７２－１": {
  "lat": 35.924355,
  "lon": 137.938675,
  "approx": true,
  "matched_query": "長野県上伊那郡箕輪町中箕輪１１２７２－１",
  "matched_title": "長野県箕輪町中箕輪"
 },
 "長野県上伊那郡箕輪町中箕輪１１４４９－１": {
  "lat": 35.924355,
  "lon": 137.938675,
  "approx": true,
  "matched_query": "長野県上伊那郡箕輪町中箕輪１１４４９－１",
  "matched_title": "長野県箕輪町中箕輪"
 },
 "長野県上伊那郡箕輪町中箕輪１１４９０他": {
  "lat": 35.924355,
  "lon": 137.938675,
  "approx": true,
  "matched_query": "長野県上伊那郡箕輪町中箕輪１１４９０他",
  "matched_title": "長野県箕輪町中箕輪"
 },
 "長野県上伊那郡箕輪町中箕輪１１７３２": {
  "lat": 35.924355,
  "lon": 137.938675,
  "approx": true,
  "matched_query": "長野県上伊那郡箕輪町中箕輪１１７３２",
  "matched_title": "長野県箕輪町中箕輪"
 },
 "長野県上伊那郡箕輪町中箕輪１１８５－１": {
  "lat": 35.924355,
  "lon": 137.938675,
  "approx": true,
  "matched_query": "長野県上伊那郡箕輪町中箕輪１１８５－１",
  "matched_title": "長野県箕輪町中箕輪"
 },
 "長野県上伊那郡箕輪町中箕輪１１９４－２": {
  "lat": 35.924355,
  "lon": 137.938675,
  "approx": true,
  "matched_query": "長野県上伊那郡箕輪町中箕輪１１９４－２",
  "matched_title": "長野県箕輪町中箕輪"
 },
 "長野県上伊那郡箕輪町中箕輪１２１９８": {
  "lat": 35.924355,
  "lon": 137.938675,
  "approx": true,
  "matched_query": "長野県上伊那郡箕輪町中箕輪１２１９８",
  "matched_title": "長野県箕輪町中箕輪"
 },
 "長野県上伊那郡箕輪町中箕輪１２２９１": {
  "lat": 35.924355,
  "lon": 137.938675,
  "approx": true,
  "matched_query": "長野県上伊那郡箕輪町中箕輪１２２９１",
  "matched_title": "長野県箕輪町中箕輪"
 },
 "長野県上伊那郡箕輪町中箕輪１２６９７": {
  "lat": 35.924355,
  "lon": 137.938675,
  "approx": true,
  "matched_query": "長野県上伊那郡箕輪町中箕輪１２６９７",
  "matched_title": "長野県箕輪町中箕輪"
 },
 "長野県上伊那郡箕輪町中箕輪１３１１４‐８": {
  "lat": 35.924355,
  "lon": 137.938675,
  "approx": true,
  "matched_query": "長野県上伊那郡箕輪町中箕輪１３１１４‐８",
  "matched_title": "長野県箕輪町中箕輪"
 },
 "長野県上伊那郡箕輪町中箕輪１３２６６－３": {
  "lat": 35.924355,
  "lon": 137.938675,
  "approx": true,
  "matched_query": "長野県上伊那郡箕輪町中箕輪１３２６６－３",
  "matched_title": "長野県箕輪町中箕輪"
 },
 "長野県上伊那郡箕輪町中箕輪１３３２－５": {
  "lat": 35.924355,
  "lon": 137.938675,
  "approx": true,
  "matched_query": "長野県上伊那郡箕輪町中箕輪１３３２－５",
  "matched_title": "長野県箕輪町中箕輪"
 },
 "長野県上伊那郡箕輪町中箕輪１３５４": {
  "lat": 35.924355,
  "lon": 137.938675,
  "approx": true,
  "matched_query": "長野県上伊那郡箕輪町中箕輪１３５４",
  "matched_title": "長野県箕輪町中箕輪"
 },
 "長野県上伊那郡箕輪町中箕輪１３８５－１": {
  "lat": 35.924355,
  "lon": 137.938675,
  "approx": true,
  "matched_query": "長野県上伊那郡箕輪町中箕輪１３８５－１",
  "matched_title": "長野県箕輪町中箕輪"
 },
 "長野県上伊那郡箕輪町中箕輪１４０１７－１３０": {
  "lat": 35.900425,
  "lon": 137.954147,
  "approx": false,
  "matched_query": "長野県上伊那郡箕輪町中箕輪１４０１７－１３０",
  "matched_title": "長野県箕輪町中箕輪１４０１７番地"
 },
 "長野県上伊那郡箕輪町中箕輪１４０９３－４": {
  "lat": 35.924355,
  "lon": 137.938675,
  "approx": true,
  "matched_query": "長野県上伊那郡箕輪町中箕輪１４０９３－４",
  "matched_title": "長野県箕輪町中箕輪"
 },
 "長野県上伊那郡箕輪町中箕輪１４１３４－４": {
  "lat": 35.924355,
  "lon": 137.938675,
  "approx": true,
  "matched_query": "長野県上伊那郡箕輪町中箕輪１４１３４－４",
  "matched_title": "長野県箕輪町中箕輪"
 },
 "長野県上伊那郡箕輪町中箕輪１４１３７－４": {
  "lat": 35.924355,
  "lon": 137.938675,
  "approx": true,
  "matched_query": "長野県上伊那郡箕輪町中箕輪１４１３７－４",
  "matched_title": "長野県箕輪町中箕輪"
 },
 "長野県上伊那郡箕輪町中箕輪１４１４９－６": {
  "lat": 35.924355,
  "lon": 137.938675,
  "approx": true,
  "matched_query": "長野県上伊那郡箕輪町中箕輪１４１４９－６",
  "matched_title": "長野県箕輪町中箕輪"
 },
 "長野県上伊那郡箕輪町中箕輪１４２００－１５": {
  "lat": 35.924355,
  "lon": 137.938675,
  "approx": true,
  "matched_query": "長野県上伊那郡箕輪町中箕輪１４２００－１５",
  "matched_title": "長野県箕輪町中箕輪"
 },
 "長野県上伊那郡箕輪町中箕輪１４２２６－１": {
  "lat": 35.924355,
  "lon": 137.938675,
  "approx": true,
  "matched_query": "長野県上伊那郡箕輪町中箕輪１４２２６－１",
  "matched_title": "長野県箕輪町中箕輪"
 },
 "長野県上伊那郡箕輪町中箕輪１４４３－１": {
  "lat": 35.924355,
  "lon": 137.938675,
  "approx": true,
  "matched_query": "長野県上伊那郡箕輪町中箕輪１４４３－１",
  "matched_title": "長野県箕輪町中箕輪"
 },
 "長野県上伊那郡箕輪町中箕輪１４４３２－１": {
  "lat": 35.910133,
  "lon": 137.953812,
  "approx": false,
  "matched_query": "長野県上伊那郡箕輪町中箕輪１４４３２－１",
  "matched_title": "長野県箕輪町中箕輪１４４３２番地"
 },
 "長野県上伊那郡箕輪町中箕輪１４４５－２": {
  "lat": 35.924355,
  "lon": 137.938675,
  "approx": true,
  "matched_query": "長野県上伊那郡箕輪町中箕輪１４４５－２",
  "matched_title": "長野県箕輪町中箕輪"
 },
 "長野県上伊那郡箕輪町中箕輪１４５": {
  "lat": 35.924355,
  "lon": 137.938675,
  "approx": true,
  "matched_query": "長野県上伊那郡箕輪町中箕輪１４５",
  "matched_title": "長野県箕輪町中箕輪"
 },
 "長野県上伊那郡箕輪町中箕輪１４５０－３": {
  "lat": 35.924355,
  "lon": 137.938675,
  "approx": true,
  "matched_query": "長野県上伊那郡箕輪町中箕輪１４５０－３",
  "matched_title": "長野県箕輪町中箕輪"
 },
 "長野県上伊那郡箕輪町中箕輪１４７５": {
  "lat": 35.924355,
  "lon": 137.938675,
  "approx": true,
  "matched_query": "長野県上伊那郡箕輪町中箕輪１４７５",
  "matched_title": "長野県箕輪町中箕輪"
 },
 "長野県上伊那郡箕輪町中箕輪１４８００－１５": {
  "lat": 35.924355,
  "lon": 137.938675,
  "approx": true,
  "matched_query": "長野県上伊那郡箕輪町中箕輪１４８００－１５",
  "matched_title": "長野県箕輪町中箕輪"
 },
 "長野県上伊那郡箕輪町中箕輪１４８００－１９": {
  "lat": 35.924355,
  "lon": 137.938675,
  "approx": true,
  "matched_query": "長野県上伊那郡箕輪町中箕輪１４８００－１９",
  "matched_title": "長野県箕輪町中箕輪"
 },
 "長野県上伊那郡箕輪町中箕輪１４８００－２６": {
  "lat": 35.924355,
  "lon": 137.938675,
  "approx": true,
  "matched_query": "長野県上伊那郡箕輪町中箕輪１４８００－２６",
  "matched_title": "長野県箕輪町中箕輪"
 },
 "長野県上伊那郡箕輪町中箕輪１５１０－１": {
  "lat": 35.924355,
  "lon": 137.938675,
  "approx": true,
  "matched_query": "長野県上伊那郡箕輪町中箕輪１５１０－１",
  "matched_title": "長野県箕輪町中箕輪"
 },
 "長野県上伊那郡箕輪町中箕輪１５３９－２": {
  "lat": 35.924355,
  "lon": 137.938675,
  "approx": true,
  "matched_query": "長野県上伊那郡箕輪町中箕輪１５３９－２",
  "matched_title": "長野県箕輪町中箕輪"
 },
 "長野県上伊那郡箕輪町中箕輪１５４５７－１": {
  "lat": 35.924355,
  "lon": 137.938675,
  "approx": true,
  "matched_query": "長野県上伊那郡箕輪町中箕輪１５４５７－１",
  "matched_title": "長野県箕輪町中箕輪"
 },
 "長野県上伊那郡箕輪町中箕輪１５８７８－１": {
  "lat": 35.924355,
  "lon": 137.938675,
  "approx": true,
  "matched_query": "長野県上伊那郡箕輪町中箕輪１５８７８－１",
  "matched_title": "長野県箕輪町中箕輪"
 },
 "長野県上伊那郡箕輪町中箕輪１５９３－１": {
  "lat": 35.924355,
  "lon": 137.938675,
  "approx": true,
  "matched_query": "長野県上伊那郡箕輪町中箕輪１５９３－１",
  "matched_title": "長野県箕輪町中箕輪"
 },
 "長野県上伊那郡箕輪町中箕輪１６１７４－１": {
  "lat": 35.924355,
  "lon": 137.938675,
  "approx": true,
  "matched_query": "長野県上伊那郡箕輪町中箕輪１６１７４－１",
  "matched_title": "長野県箕輪町中箕輪"
 },
 "長野県上伊那郡箕輪町中箕輪１６１９２－５": {
  "lat": 35.924355,
  "lon": 137.938675,
  "approx": true,
  "matched_query": "長野県上伊那郡箕輪町中箕輪１６１９２－５",
  "matched_title": "長野県箕輪町中箕輪"
 },
 "長野県上伊那郡箕輪町中箕輪１６３４－３": {
  "lat": 35.924355,
  "lon": 137.938675,
  "approx": true,
  "matched_query": "長野県上伊那郡箕輪町中箕輪１６３４－３",
  "matched_title": "長野県箕輪町中箕輪"
 },
 "長野県上伊那郡箕輪町中箕輪１６３８－２": {
  "lat": 35.924355,
  "lon": 137.938675,
  "approx": true,
  "matched_query": "長野県上伊那郡箕輪町中箕輪１６３８－２",
  "matched_title": "長野県箕輪町中箕輪"
 },
 "長野県上伊那郡箕輪町中箕輪１７３５－１": {
  "lat": 35.924355,
  "lon": 137.938675,
  "approx": true,
  "matched_query": "長野県上伊那郡箕輪町中箕輪１７３５－１",
  "matched_title": "長野県箕輪町中箕輪"
 },
 "長野県上伊那郡箕輪町中箕輪１７４９－１": {
  "lat": 35.924355,
  "lon": 137.938675,
  "approx": true,
  "matched_query": "長野県上伊那郡箕輪町中箕輪１７４９－１",
  "matched_title": "長野県箕輪町中箕輪"
 },
 "長野県上伊那郡箕輪町中箕輪１８９９－１": {
  "lat": 35.924355,
  "lon": 137.938675,
  "approx": true,
  "matched_query": "長野県上伊那郡箕輪町中箕輪１８９９－１",
  "matched_title": "長野県箕輪町中箕輪"
 },
 "長野県上伊那郡箕輪町中箕輪１９３７－１１": {
  "lat": 35.924355,
  "lon": 137.938675,
  "approx": true,
  "matched_query": "長野県上伊那郡箕輪町中箕輪１９３７－１１",
  "matched_title": "長野県箕輪町中箕輪"
 },
 "長野県上伊那郡箕輪町中箕輪２０２０－１": {
  "lat": 35.924355,
  "lon": 137.938675,
  "approx": true,
  "matched_query": "長野県上伊那郡箕輪町中箕輪２０２０－１",
  "matched_title": "長野県箕輪町中箕輪"
 },
 "長野県上伊那郡箕輪町中箕輪２１３４－７５": {
  "lat": 35.943542,
  "lon": 137.956741,
  "approx": false,
  "matched_query": "長野県上伊那郡箕輪町中箕輪２１３４－７５",
  "matched_title": "長野県箕輪町中箕輪２１３４番地"
 },
 "長野県上伊那郡箕輪町中箕輪２１３４－９１２": {
  "lat": 35.943542,
  "lon": 137.956741,
  "approx": false,
  "matched_query": "長野県上伊那郡箕輪町中箕輪２１３４－９１２",
  "matched_title": "長野県箕輪町中箕輪２１３４番地"
 },
 "長野県上伊那郡箕輪町中箕輪２１３４－９１３": {
  "lat": 35.943542,
  "lon": 137.956741,
  "approx": false,
  "matched_query": "長野県上伊那郡箕輪町中箕輪２１３４－９１３",
  "matched_title": "長野県箕輪町中箕輪２１３４番地"
 },
 "長野県上伊那郡箕輪町中箕輪２１３８－１": {
  "lat": 35.924355,
  "lon": 137.938675,
  "approx": true,
  "matched_query": "長野県上伊那郡箕輪町中箕輪２１３８－１",
  "matched_title": "長野県箕輪町中箕輪"
 },
 "長野県上伊那郡箕輪町中箕輪２４９９－１": {
  "lat": 35.924355,
  "lon": 137.938675,
  "approx": true,
  "matched_query": "長野県上伊那郡箕輪町中箕輪２４９９－１",
  "matched_title": "長野県箕輪町中箕輪"
 },
 "長野県上伊那郡箕輪町中箕輪２６７３－１": {
  "lat": 35.924355,
  "lon": 137.938675,
  "approx": true,
  "matched_query": "長野県上伊那郡箕輪町中箕輪２６７３－１",
  "matched_title": "長野県箕輪町中箕輪"
 },
 "長野県上伊那郡箕輪町中箕輪２７８７": {
  "lat": 35.924355,
  "lon": 137.938675,
  "approx": true,
  "matched_query": "長野県上伊那郡箕輪町中箕輪２７８７",
  "matched_title": "長野県箕輪町中箕輪"
 },
 "長野県上伊那郡箕輪町中箕輪３０９０－１": {
  "lat": 35.924355,
  "lon": 137.938675,
  "approx": true,
  "matched_query": "長野県上伊那郡箕輪町中箕輪３０９０－１",
  "matched_title": "長野県箕輪町中箕輪"
 },
 "長野県上伊那郡箕輪町中箕輪３１４４－５": {
  "lat": 35.924355,
  "lon": 137.938675,
  "approx": true,
  "matched_query": "長野県上伊那郡箕輪町中箕輪３１４４－５",
  "matched_title": "長野県箕輪町中箕輪"
 },
 "長野県上伊那郡箕輪町中箕輪３２９９‐１": {
  "lat": 35.924355,
  "lon": 137.938675,
  "approx": true,
  "matched_query": "長野県上伊那郡箕輪町中箕輪３２９９‐１",
  "matched_title": "長野県箕輪町中箕輪"
 },
 "長野県上伊那郡箕輪町中箕輪３４４０－２": {
  "lat": 35.924355,
  "lon": 137.938675,
  "approx": true,
  "matched_query": "長野県上伊那郡箕輪町中箕輪３４４０－２",
  "matched_title": "長野県箕輪町中箕輪"
 },
 "長野県上伊那郡箕輪町中箕輪３４４１－２": {
  "lat": 35.924355,
  "lon": 137.938675,
  "approx": true,
  "matched_query": "長野県上伊那郡箕輪町中箕輪３４４１－２",
  "matched_title": "長野県箕輪町中箕輪"
 },
 "長野県上伊那郡箕輪町中箕輪３７３０－５６３": {
  "lat": 35.937187,
  "lon": 137.958755,
  "approx": false,
  "matched_query": "長野県上伊那郡箕輪町中箕輪３７３０－５６３",
  "matched_title": "長野県箕輪町中箕輪３７３０番地"
 },
 "長野県上伊那郡箕輪町中箕輪４２３４‐１": {
  "lat": 35.924355,
  "lon": 137.938675,
  "approx": true,
  "matched_query": "長野県上伊那郡箕輪町中箕輪４２３４‐１",
  "matched_title": "長野県箕輪町中箕輪"
 },
 "長野県上伊那郡箕輪町中箕輪４２４０‐１": {
  "lat": 35.924355,
  "lon": 137.938675,
  "approx": true,
  "matched_query": "長野県上伊那郡箕輪町中箕輪４２４０‐１",
  "matched_title": "長野県箕輪町中箕輪"
 },
 "長野県上伊那郡箕輪町中箕輪５４２－１": {
  "lat": 35.924355,
  "lon": 137.938675,
  "approx": true,
  "matched_query": "長野県上伊那郡箕輪町中箕輪５４２－１",
  "matched_title": "長野県箕輪町中箕輪"
 },
 "長野県上伊那郡箕輪町中箕輪６２２１－１": {
  "lat": 35.924355,
  "lon": 137.938675,
  "approx": true,
  "matched_query": "長野県上伊那郡箕輪町中箕輪６２２１－１",
  "matched_title": "長野県箕輪町中箕輪"
 },
 "長野県上伊那郡箕輪町中箕輪７４０７－７５": {
  "lat": 35.924355,
  "lon": 137.938675,
  "approx": true,
  "matched_query": "長野県上伊那郡箕輪町中箕輪７４０７－７５",
  "matched_title": "長野県箕輪町中箕輪"
 },
 "長野県上伊那郡箕輪町中箕輪７４０７－７８": {
  "lat": 35.924355,
  "lon": 137.938675,
  "approx": true,
  "matched_query": "長野県上伊那郡箕輪町中箕輪７４０７－７８",
  "matched_title": "長野県箕輪町中箕輪"
 },
 "長野県上伊那郡箕輪町中箕輪７４０７－８５": {
  "lat": 35.924355,
  "lon": 137.938675,
  "approx": true,
  "matched_query": "長野県上伊那郡箕輪町中箕輪７４０７－８５",
  "matched_title": "長野県箕輪町中箕輪"
 },
 "長野県上伊那郡箕輪町中箕輪７４０７－８７": {
  "lat": 35.924355,
  "lon": 137.938675,
  "approx": true,
  "matched_query": "長野県上伊那郡箕輪町中箕輪７４０７－８７",
  "matched_title": "長野県箕輪町中箕輪"
 },
 "長野県上伊那郡箕輪町中箕輪７４７－１": {
  "lat": 35.924355,
  "lon": 137.938675,
  "approx": true,
  "matched_query": "長野県上伊那郡箕輪町中箕輪７４７－１",
  "matched_title": "長野県箕輪町中箕輪"
 },
 "長野県上伊那郡箕輪町中箕輪７６５５‐１": {
  "lat": 35.924355,
  "lon": 137.938675,
  "approx": true,
  "matched_query": "長野県上伊那郡箕輪町中箕輪７６５５‐１",
  "matched_title": "長野県箕輪町中箕輪"
 },
 "長野県上伊那郡箕輪町中箕輪７９０３－１": {
  "lat": 35.924355,
  "lon": 137.938675,
  "approx": true,
  "matched_query": "長野県上伊那郡箕輪町中箕輪７９０３－１",
  "matched_title": "長野県箕輪町中箕輪"
 },
 "長野県上伊那郡箕輪町中箕輪７９５９": {
  "lat": 35.924355,
  "lon": 137.938675,
  "approx": true,
  "matched_query": "長野県上伊那郡箕輪町中箕輪７９５９",
  "matched_title": "長野県箕輪町中箕輪"
 },
 "長野県上伊那郡箕輪町中箕輪８０７４－１": {
  "lat": 35.924355,
  "lon": 137.938675,
  "approx": true,
  "matched_query": "長野県上伊那郡箕輪町中箕輪８０７４－１",
  "matched_title": "長野県箕輪町中箕輪"
 },
 "長野県上伊那郡箕輪町中箕輪８２１７－１": {
  "lat": 35.924355,
  "lon": 137.938675,
  "approx": true,
  "matched_query": "長野県上伊那郡箕輪町中箕輪８２１７－１",
  "matched_title": "長野県箕輪町中箕輪"
 },
 "長野県上伊那郡箕輪町中箕輪８５－２": {
  "lat": 35.924355,
  "lon": 137.938675,
  "approx": true,
  "matched_query": "長野県上伊那郡箕輪町中箕輪８５－２",
  "matched_title": "長野県箕輪町中箕輪"
 },
 "長野県上伊那郡箕輪町中箕輪８５４０－１": {
  "lat": 35.924355,
  "lon": 137.938675,
  "approx": true,
  "matched_query": "長野県上伊那郡箕輪町中箕輪８５４０－１",
  "matched_title": "長野県箕輪町中箕輪"
 },
 "長野県上伊那郡箕輪町中箕輪８５７０－１": {
  "lat": 35.924355,
  "lon": 137.938675,
  "approx": true,
  "matched_query": "長野県上伊那郡箕輪町中箕輪８５７０－１",
  "matched_title": "長野県箕輪町中箕輪"
 },
 "長野県上伊那郡箕輪町中箕輪８６９１": {
  "lat": 35.924355,
  "lon": 137.938675,
  "approx": true,
  "matched_query": "長野県上伊那郡箕輪町中箕輪８６９１",
  "matched_title": "長野県箕輪町中箕輪"
 },
 "長野県上伊那郡箕輪町中箕輪８７００－３": {
  "lat": 35.924355,
  "lon": 137.938675,
  "approx": true,
  "matched_query": "長野県上伊那郡箕輪町中箕輪８７００－３",
  "matched_title": "長野県箕輪町中箕輪"
 },
 "長野県上伊那郡箕輪町中箕輪８７５０": {
  "lat": 35.924355,
  "lon": 137.938675,
  "approx": true,
  "matched_query": "長野県上伊那郡箕輪町中箕輪８７５０",
  "matched_title": "長野県箕輪町中箕輪"
 },
 "長野県上伊那郡箕輪町中箕輪８８０１－１": {
  "lat": 35.924355,
  "lon": 137.938675,
  "approx": true,
  "matched_query": "長野県上伊那郡箕輪町中箕輪８８０１－１",
  "matched_title": "長野県箕輪町中箕輪"
 },
 "長野県上伊那郡箕輪町中箕輪８８０１－２": {
  "lat": 35.924355,
  "lon": 137.938675,
  "approx": true,
  "matched_query": "長野県上伊那郡箕輪町中箕輪８８０１－２",
  "matched_title": "長野県箕輪町中箕輪"
 },
 "長野県上伊那郡箕輪町中箕輪８８１０－１": {
  "lat": 35.924355,
  "lon": 137.938675,
  "approx": true,
  "matched_query": "長野県上伊那郡箕輪町中箕輪８８１０－１",
  "matched_title": "長野県箕輪町中箕輪"
 },
 "長野県上伊那郡箕輪町中箕輪８８１８": {
  "lat": 35.924355,
  "lon": 137.938675,
  "approx": true,
  "matched_query": "長野県上伊那郡箕輪町中箕輪８８１８",
  "matched_title": "長野県箕輪町中箕輪"
 },
 "長野県上伊那郡箕輪町中箕輪８８５０－２": {
  "lat": 35.924355,
  "lon": 137.938675,
  "approx": true,
  "matched_query": "長野県上伊那郡箕輪町中箕輪８８５０－２",
  "matched_title": "長野県箕輪町中箕輪"
 },
 "長野県上伊那郡箕輪町中箕輪９０４－１": {
  "lat": 35.924355,
  "lon": 137.938675,
  "approx": true,
  "matched_query": "長野県上伊那郡箕輪町中箕輪９０４－１",
  "matched_title": "長野県箕輪町中箕輪"
 },
 "長野県上伊那郡箕輪町中箕輪９１２９": {
  "lat": 35.924355,
  "lon": 137.938675,
  "approx": true,
  "matched_query": "長野県上伊那郡箕輪町中箕輪９１２９",
  "matched_title": "長野県箕輪町中箕輪"
 },
 "長野県上伊那郡箕輪町中箕輪９３２０－１": {
  "lat": 35.924355,
  "lon": 137.938675,
  "approx": true,
  "matched_query": "長野県上伊那郡箕輪町中箕輪９３２０－１",
  "matched_title": "長野県箕輪町中箕輪"
 },
 "長野県上伊那郡箕輪町中箕輪９３９－１": {
  "lat": 35.924355,
  "lon": 137.938675,
  "approx": true,
  "matched_query": "長野県上伊那郡箕輪町中箕輪９３９－１",
  "matched_title": "長野県箕輪町中箕輪"
 },
 "長野県上伊那郡箕輪町中箕輪９８５０": {
  "lat": 35.924355,
  "lon": 137.938675,
  "approx": true,
  "matched_query": "長野県上伊那郡箕輪町中箕輪９８５０",
  "matched_title": "長野県箕輪町中箕輪"
 },
 "長野県上伊那郡箕輪町大字三日町字伴久１３９６－２": {
  "lat": 35.902493,
  "lon": 138.009872,
  "approx": true,
  "matched_query": "長野県上伊那郡箕輪町大字三日町字伴久１３９６－２",
  "matched_title": "長野県箕輪町三日町"
 },
 "長野県上伊那郡箕輪町大字三日町字城安寺８７７－２": {
  "lat": 35.902493,
  "lon": 138.009872,
  "approx": true,
  "matched_query": "長野県上伊那郡箕輪町大字三日町字城安寺８７７－２",
  "matched_title": "長野県箕輪町三日町"
 },
 "長野県上伊那郡箕輪町大字三日町１００４": {
  "lat": 35.885235,
  "lon": 137.994934,
  "approx": false,
  "matched_query": "長野県上伊那郡箕輪町大字三日町１００４",
  "matched_title": "長野県箕輪町三日町１００４番地"
 },
 "長野県上伊那郡箕輪町大字三日町４９３－１": {
  "lat": 35.917469,
  "lon": 137.997116,
  "approx": false,
  "matched_query": "長野県上伊那郡箕輪町大字三日町４９３－１",
  "matched_title": "長野県箕輪町三日町４９３番地"
 },
 "長野県上伊那郡箕輪町大字中箕輪字丁木１５６６１": {
  "lat": 35.924355,
  "lon": 137.938675,
  "approx": true,
  "matched_query": "長野県上伊那郡箕輪町大字中箕輪字丁木１５６６１",
  "matched_title": "長野県箕輪町中箕輪"
 },
 "長野県上伊那郡箕輪町大字中箕輪字五斗山７４０７－７１": {
  "lat": 35.924355,
  "lon": 137.938675,
  "approx": true,
  "matched_query": "長野県上伊那郡箕輪町大字中箕輪字五斗山７４０７－７１",
  "matched_title": "長野県箕輪町中箕輪"
 },
 "長野県上伊那郡箕輪町大字中箕輪字五斗山７４０７－８３": {
  "lat": 35.924355,
  "lon": 137.938675,
  "approx": true,
  "matched_query": "長野県上伊那郡箕輪町大字中箕輪字五斗山７４０７－８３",
  "matched_title": "長野県箕輪町中箕輪"
 },
 "長野県上伊那郡箕輪町大字中箕輪字北原４２７９－８８": {
  "lat": 35.924355,
  "lon": 137.938675,
  "approx": true,
  "matched_query": "長野県上伊那郡箕輪町大字中箕輪字北原４２７９－８８",
  "matched_title": "長野県箕輪町中箕輪"
 },
 "長野県上伊那郡箕輪町大字中箕輪字北垣外１４８００－３５３": {
  "lat": 35.924355,
  "lon": 137.938675,
  "approx": true,
  "matched_query": "長野県上伊那郡箕輪町大字中箕輪字北垣外１４８００－３５３",
  "matched_title": "長野県箕輪町中箕輪"
 },
 "長野県上伊那郡箕輪町大字中箕輪字北垣外１４８００－４３": {
  "lat": 35.924355,
  "lon": 137.938675,
  "approx": true,
  "matched_query": "長野県上伊那郡箕輪町大字中箕輪字北垣外１４８００－４３",
  "matched_title": "長野県箕輪町中箕輪"
 },
 "長野県上伊那郡箕輪町大字中箕輪字南原２１３４－１２５５": {
  "lat": 35.924355,
  "lon": 137.938675,
  "approx": true,
  "matched_query": "長野県上伊那郡箕輪町大字中箕輪字南原２１３４－１２５５",
  "matched_title": "長野県箕輪町中箕輪"
 },
 "長野県上伊那郡箕輪町大字中箕輪字南原２１３４－１２５６": {
  "lat": 35.924355,
  "lon": 137.938675,
  "approx": true,
  "matched_query": "長野県上伊那郡箕輪町大字中箕輪字南原２１３４－１２５６",
  "matched_title": "長野県箕輪町中箕輪"
 },
 "長野県上伊那郡箕輪町大字中箕輪字南原２１３４－６５": {
  "lat": 35.924355,
  "lon": 137.938675,
  "approx": true,
  "matched_query": "長野県上伊那郡箕輪町大字中箕輪字南原２１３４－６５",
  "matched_title": "長野県箕輪町中箕輪"
 },
 "長野県上伊那郡箕輪町大字中箕輪字南原２１３４－６９": {
  "lat": 35.924355,
  "lon": 137.938675,
  "approx": true,
  "matched_query": "長野県上伊那郡箕輪町大字中箕輪字南原２１３４－６９",
  "matched_title": "長野県箕輪町中箕輪"
 },
 "長野県上伊那郡箕輪町大字中箕輪字南原２１３４－７１": {
  "lat": 35.924355,
  "lon": 137.938675,
  "approx": true,
  "matched_query": "長野県上伊那郡箕輪町大字中箕輪字南原２１３４－７１",
  "matched_title": "長野県箕輪町中箕輪"
 },
 "長野県上伊那郡箕輪町大字中箕輪字南原２１３４－８６２": {
  "lat": 35.924355,
  "lon": 137.938675,
  "approx": true,
  "matched_query": "長野県上伊那郡箕輪町大字中箕輪字南原２１３４－８６２",
  "matched_title": "長野県箕輪町中箕輪"
 },
 "長野県上伊那郡箕輪町大字中箕輪字天王１２６８４－５": {
  "lat": 35.924355,
  "lon": 137.938675,
  "approx": true,
  "matched_query": "長野県上伊那郡箕輪町大字中箕輪字天王１２６８４－５",
  "matched_title": "長野県箕輪町中箕輪"
 },
 "長野県上伊那郡箕輪町大字中箕輪字宮の上１５０３－１": {
  "lat": 35.924355,
  "lon": 137.938675,
  "approx": true,
  "matched_query": "長野県上伊那郡箕輪町大字中箕輪字宮の上１５０３－１",
  "matched_title": "長野県箕輪町中箕輪"
 },
 "長野県上伊那郡箕輪町大字中箕輪字山田５９１７": {
  "lat": 35.924355,
  "lon": 137.938675,
  "approx": true,
  "matched_query": "長野県上伊那郡箕輪町大字中箕輪字山田５９１７",
  "matched_title": "長野県箕輪町中箕輪"
 },
 "長野県上伊那郡箕輪町大字中箕輪字山田６８２１、６８１４、６８１８、６８２５、６８４３、５９１９、５９２０、６８１５、６８１６、６８１７、６８２３、６８２４、６８４４、６８４５、６８４６、６８４７、６８４８、６８４９他３筆": {
  "lat": 35.924355,
  "lon": 137.938675,
  "approx": true,
  "matched_query": "長野県上伊那郡箕輪町大字中箕輪字山田６８２１、６８１４、６８１８、６８２５、６８４３、５９１９、５９２０、６８１５、６８１６、６８１７、６８２３、６８２４、６８４４、６８４５、６８４６、６８４７、６８４８、６８４９他３筆",
  "matched_title": "長野県箕輪町中箕輪"
 },
 "長野県上伊那郡箕輪町大字中箕輪字権現久保１４７７２－１": {
  "lat": 35.924355,
  "lon": 137.938675,
  "approx": true,
  "matched_query": "長野県上伊那郡箕輪町大字中箕輪字権現久保１４７７２－１",
  "matched_title": "長野県箕輪町中箕輪"
 },
 "長野県上伊那郡箕輪町大字中箕輪１０７２５－２": {
  "lat": 35.924355,
  "lon": 137.938675,
  "approx": true,
  "matched_query": "長野県上伊那郡箕輪町大字中箕輪１０７２５－２",
  "matched_title": "長野県箕輪町中箕輪"
 },
 "長野県上伊那郡箕輪町大字中箕輪１１２９９－１": {
  "lat": 35.924355,
  "lon": 137.938675,
  "approx": true,
  "matched_query": "長野県上伊那郡箕輪町大字中箕輪１１２９９－１",
  "matched_title": "長野県箕輪町中箕輪"
 },
 "長野県上伊那郡箕輪町大字中箕輪１２７０３－２": {
  "lat": 35.924355,
  "lon": 137.938675,
  "approx": true,
  "matched_query": "長野県上伊那郡箕輪町大字中箕輪１２７０３－２",
  "matched_title": "長野県箕輪町中箕輪"
 },
 "長野県上伊那郡箕輪町大字中箕輪１３８９２－１": {
  "lat": 35.924355,
  "lon": 137.938675,
  "approx": true,
  "matched_query": "長野県上伊那郡箕輪町大字中箕輪１３８９２－１",
  "matched_title": "長野県箕輪町中箕輪"
 },
 "長野県上伊那郡箕輪町大字中箕輪１４０１６－２７９": {
  "lat": 35.902374,
  "lon": 137.956696,
  "approx": false,
  "matched_query": "長野県上伊那郡箕輪町大字中箕輪１４０１６－２７９",
  "matched_title": "長野県箕輪町中箕輪１４０１６番地"
 },
 "長野県上伊那郡箕輪町大字中箕輪１４０１７－５０": {
  "lat": 35.900425,
  "lon": 137.954147,
  "approx": false,
  "matched_query": "長野県上伊那郡箕輪町大字中箕輪１４０１７－５０",
  "matched_title": "長野県箕輪町中箕輪１４０１７番地"
 },
 "長野県上伊那郡箕輪町大字中箕輪１４８００－２６２": {
  "lat": 35.924355,
  "lon": 137.938675,
  "approx": true,
  "matched_query": "長野県上伊那郡箕輪町大字中箕輪１４８００－２６２",
  "matched_title": "長野県箕輪町中箕輪"
 },
 "長野県上伊那郡箕輪町大字中箕輪１６３３４－１": {
  "lat": 35.924355,
  "lon": 137.938675,
  "approx": true,
  "matched_query": "長野県上伊那郡箕輪町大字中箕輪１６３３４－１",
  "matched_title": "長野県箕輪町中箕輪"
 },
 "長野県上伊那郡箕輪町大字中箕輪１８９０－１": {
  "lat": 35.924355,
  "lon": 137.938675,
  "approx": true,
  "matched_query": "長野県上伊那郡箕輪町大字中箕輪１８９０－１",
  "matched_title": "長野県箕輪町中箕輪"
 },
 "長野県上伊那郡箕輪町大字中箕輪８２５０－４": {
  "lat": 35.924355,
  "lon": 137.938675,
  "approx": true,
  "matched_query": "長野県上伊那郡箕輪町大字中箕輪８２５０－４",
  "matched_title": "長野県箕輪町中箕輪"
 },
 "長野県上伊那郡箕輪町大字中箕輪８９４５－６": {
  "lat": 35.907818,
  "lon": 137.994293,
  "approx": false,
  "matched_query": "長野県上伊那郡箕輪町大字中箕輪８９４５－６",
  "matched_title": "長野県箕輪町中箕輪８９４５番地"
 },
 "長野県上伊那郡箕輪町大字東箕輪字日向入ノ内栃窪２３３９－５５": {
  "lat": 35.937935,
  "lon": 138.036743,
  "approx": true,
  "matched_query": "長野県上伊那郡箕輪町大字東箕輪字日向入ノ内栃窪２３３９－５５",
  "matched_title": "長野県箕輪町東箕輪"
 },
 "長野県上伊那郡箕輪町大字東箕輪字直路４４４－２": {
  "lat": 35.937935,
  "lon": 138.036743,
  "approx": true,
  "matched_query": "長野県上伊那郡箕輪町大字東箕輪字直路４４４－２",
  "matched_title": "長野県箕輪町東箕輪"
 },
 "長野県上伊那郡箕輪町大字東箕輪字直路４７１－１（住居表示未確定）": {
  "lat": 35.937935,
  "lon": 138.036743,
  "approx": true,
  "matched_query": "長野県上伊那郡箕輪町大字東箕輪字直路４７１－１（住居表示未確定）",
  "matched_title": "長野県箕輪町東箕輪"
 },
 "長野県上伊那郡箕輪町大字東箕輪３９２１－１": {
  "lat": 35.937935,
  "lon": 138.036743,
  "approx": true,
  "matched_query": "長野県上伊那郡箕輪町大字東箕輪３９２１－１",
  "matched_title": "長野県箕輪町東箕輪"
 },
 "長野県上伊那郡箕輪町大字東箕輪４２６５": {
  "lat": 35.937935,
  "lon": 138.036743,
  "approx": true,
  "matched_query": "長野県上伊那郡箕輪町大字東箕輪４２６５",
  "matched_title": "長野県箕輪町東箕輪"
 },
 "長野県上伊那郡箕輪町大字東箕輪４２８２－１": {
  "lat": 35.937935,
  "lon": 138.036743,
  "approx": true,
  "matched_query": "長野県上伊那郡箕輪町大字東箕輪４２８２－１",
  "matched_title": "長野県箕輪町東箕輪"
 },
 "長野県上伊那郡箕輪町大字東箕輪４２８２－２": {
  "lat": 35.937935,
  "lon": 138.036743,
  "approx": true,
  "matched_query": "長野県上伊那郡箕輪町大字東箕輪４２８２－２",
  "matched_title": "長野県箕輪町東箕輪"
 },
 "長野県上伊那郡箕輪町大字東箕輪４２９８": {
  "lat": 35.937935,
  "lon": 138.036743,
  "approx": true,
  "matched_query": "長野県上伊那郡箕輪町大字東箕輪４２９８",
  "matched_title": "長野県箕輪町東箕輪"
 },
 "長野県上伊那郡箕輪町大字東箕輪４３０１－１": {
  "lat": 35.937935,
  "lon": 138.036743,
  "approx": true,
  "matched_query": "長野県上伊那郡箕輪町大字東箕輪４３０１－１",
  "matched_title": "長野県箕輪町東箕輪"
 },
 "長野県上伊那郡箕輪町大字東箕輪４３０１－２": {
  "lat": 35.937935,
  "lon": 138.036743,
  "approx": true,
  "matched_query": "長野県上伊那郡箕輪町大字東箕輪４３０１－２",
  "matched_title": "長野県箕輪町東箕輪"
 },
 "長野県上伊那郡箕輪町大字福与３０７－１": {
  "lat": 35.892174,
  "lon": 138.011292,
  "approx": true,
  "matched_query": "長野県上伊那郡箕輪町大字福与３０７－１",
  "matched_title": "長野県箕輪町福与"
 },
 "長野県上伊那郡箕輪町東箕輪字久保畑３９６": {
  "lat": 35.937935,
  "lon": 138.036743,
  "approx": true,
  "matched_query": "長野県上伊那郡箕輪町東箕輪字久保畑３９６",
  "matched_title": "長野県箕輪町東箕輪"
 },
 "長野県上伊那郡箕輪町東箕輪字福沢２４５４－１": {
  "lat": 35.937935,
  "lon": 138.036743,
  "approx": true,
  "matched_query": "長野県上伊那郡箕輪町東箕輪字福沢２４５４－１",
  "matched_title": "長野県箕輪町東箕輪"
 },
 "長野県上伊那郡箕輪町東箕輪字福沢２４５５－１": {
  "lat": 35.937935,
  "lon": 138.036743,
  "approx": true,
  "matched_query": "長野県上伊那郡箕輪町東箕輪字福沢２４５５－１",
  "matched_title": "長野県箕輪町東箕輪"
 },
 "長野県上伊那郡箕輪町東箕輪字竹腰４２９６": {
  "lat": 35.937935,
  "lon": 138.036743,
  "approx": true,
  "matched_query": "長野県上伊那郡箕輪町東箕輪字竹腰４２９６",
  "matched_title": "長野県箕輪町東箕輪"
 },
 "長野県上伊那郡箕輪町東箕輪松木田４１３２－１": {
  "lat": 35.937935,
  "lon": 138.036743,
  "approx": true,
  "matched_query": "長野県上伊那郡箕輪町東箕輪松木田４１３２－１",
  "matched_title": "長野県箕輪町東箕輪"
 },
 "長野県上伊那郡箕輪町東箕輪洞田３６９２": {
  "lat": 35.937935,
  "lon": 138.036743,
  "approx": true,
  "matched_query": "長野県上伊那郡箕輪町東箕輪洞田３６９２",
  "matched_title": "長野県箕輪町東箕輪"
 },
 "長野県上伊那郡箕輪町東箕輪西河原１４２１－１": {
  "lat": 35.937935,
  "lon": 138.036743,
  "approx": true,
  "matched_query": "長野県上伊那郡箕輪町東箕輪西河原１４２１－１",
  "matched_title": "長野県箕輪町東箕輪"
 },
 "長野県上伊那郡箕輪町東箕輪１０８５": {
  "lat": 35.937935,
  "lon": 138.036743,
  "approx": true,
  "matched_query": "長野県上伊那郡箕輪町東箕輪１０８５",
  "matched_title": "長野県箕輪町東箕輪"
 },
 "長野県上伊那郡箕輪町東箕輪１０８７－１": {
  "lat": 35.937935,
  "lon": 138.036743,
  "approx": true,
  "matched_query": "長野県上伊那郡箕輪町東箕輪１０８７－１",
  "matched_title": "長野県箕輪町東箕輪"
 },
 "長野県上伊那郡箕輪町東箕輪３１５８": {
  "lat": 35.937935,
  "lon": 138.036743,
  "approx": true,
  "matched_query": "長野県上伊那郡箕輪町東箕輪３１５８",
  "matched_title": "長野県箕輪町東箕輪"
 },
 "長野県上伊那郡箕輪町東箕輪３２２９": {
  "lat": 35.934174,
  "lon": 137.995346,
  "approx": false,
  "matched_query": "長野県上伊那郡箕輪町東箕輪３２２９",
  "matched_title": "長野県箕輪町東箕輪３２２９番地"
 },
 "長野県上伊那郡箕輪町東箕輪３５１０－２": {
  "lat": 35.933681,
  "lon": 137.997406,
  "approx": false,
  "matched_query": "長野県上伊那郡箕輪町東箕輪３５１０－２",
  "matched_title": "長野県箕輪町東箕輪３５１０番地"
 },
 "長野県上伊那郡箕輪町東箕輪３８１１－１": {
  "lat": 35.939857,
  "lon": 137.998383,
  "approx": false,
  "matched_query": "長野県上伊那郡箕輪町東箕輪３８１１－１",
  "matched_title": "長野県箕輪町東箕輪３８１１番地"
 },
 "長野県上伊那郡箕輪町東箕輪４１５４－１": {
  "lat": 35.937935,
  "lon": 138.036743,
  "approx": true,
  "matched_query": "長野県上伊那郡箕輪町東箕輪４１５４－１",
  "matched_title": "長野県箕輪町東箕輪"
 },
 "長野県上伊那郡箕輪町東箕輪４１８５−２": {
  "lat": 35.9436,
  "lon": 137.996552,
  "approx": false,
  "matched_query": "長野県上伊那郡箕輪町東箕輪４１８５−２",
  "matched_title": "長野県箕輪町東箕輪４１８５番地"
 },
 "長野県上伊那郡箕輪町東箕輪４４０４－４": {
  "lat": 35.947037,
  "lon": 137.997986,
  "approx": false,
  "matched_query": "長野県上伊那郡箕輪町東箕輪４４０４－４",
  "matched_title": "長野県箕輪町東箕輪４４０４番地"
 },
 "長野県上伊那郡箕輪町東箕輪４６８－４": {
  "lat": 35.937935,
  "lon": 138.036743,
  "approx": true,
  "matched_query": "長野県上伊那郡箕輪町東箕輪４６８－４",
  "matched_title": "長野県箕輪町東箕輪"
 },
 "長野県上伊那郡箕輪町東箕輪４９２１": {
  "lat": 35.944878,
  "lon": 137.995438,
  "approx": false,
  "matched_query": "長野県上伊那郡箕輪町東箕輪４９２１",
  "matched_title": "長野県箕輪町東箕輪４９２１番地"
 },
 "長野県上伊那郡箕輪町東箕輪４９２８－１": {
  "lat": 35.944878,
  "lon": 137.995438,
  "approx": false,
  "matched_query": "長野県上伊那郡箕輪町東箕輪４９２８－１",
  "matched_title": "長野県箕輪町東箕輪４９２８番地"
 },
 "長野県上伊那郡箕輪町東箕輪７３８－１": {
  "lat": 35.937935,
  "lon": 138.036743,
  "approx": true,
  "matched_query": "長野県上伊那郡箕輪町東箕輪７３８－１",
  "matched_title": "長野県箕輪町東箕輪"
 },
 "長野県上伊那郡箕輪町福与字北沢１９０４－７": {
  "lat": 35.892174,
  "lon": 138.011292,
  "approx": true,
  "matched_query": "長野県上伊那郡箕輪町福与字北沢１９０４－７",
  "matched_title": "長野県箕輪町福与"
 },
 "長野県上伊那郡箕輪町福与字北畑１４０７－１": {
  "lat": 35.892174,
  "lon": 138.011292,
  "approx": true,
  "matched_query": "長野県上伊那郡箕輪町福与字北畑１４０７－１",
  "matched_title": "長野県箕輪町福与"
 },
 "長野県上伊那郡箕輪町福与字日陰１３９７－１": {
  "lat": 35.892174,
  "lon": 138.011292,
  "approx": true,
  "matched_query": "長野県上伊那郡箕輪町福与字日陰１３９７－１",
  "matched_title": "長野県箕輪町福与"
 },
 "長野県上伊那郡箕輪町福与福原３５５－１": {
  "lat": 35.892174,
  "lon": 138.011292,
  "approx": true,
  "matched_query": "長野県上伊那郡箕輪町福与福原３５５－１",
  "matched_title": "長野県箕輪町福与"
 },
 "長野県上伊那郡箕輪町福与１３４８－１": {
  "lat": 35.893169,
  "lon": 138.000885,
  "approx": false,
  "matched_query": "長野県上伊那郡箕輪町福与１３４８－１",
  "matched_title": "長野県箕輪町福与１３４８番地"
 },
 "長野県上伊那郡箕輪町福与１８０５－２": {
  "lat": 35.89571,
  "lon": 138.00351,
  "approx": false,
  "matched_query": "長野県上伊那郡箕輪町福与１８０５－２",
  "matched_title": "長野県箕輪町福与１８０５番地"
 },
 "長野県上伊那郡箕輪町福与１９９６－１５１": {
  "lat": 35.884411,
  "lon": 138.001953,
  "approx": false,
  "matched_query": "長野県上伊那郡箕輪町福与１９９６－１５１",
  "matched_title": "長野県箕輪町福与１９９６番地"
 },
 "長野県上伊那郡箕輪町福与３１４‐３": {
  "lat": 35.892174,
  "lon": 138.011292,
  "approx": true,
  "matched_query": "長野県上伊那郡箕輪町福与３１４‐３",
  "matched_title": "長野県箕輪町福与"
 },
 "長野県上伊那郡箕輪町福与３７６－４": {
  "lat": 35.892174,
  "lon": 138.011292,
  "approx": true,
  "matched_query": "長野県上伊那郡箕輪町福与３７６－４",
  "matched_title": "長野県箕輪町福与"
 },
 "長野県上伊那郡箕輪町福与５１５": {
  "lat": 35.892174,
  "lon": 138.011292,
  "approx": true,
  "matched_query": "長野県上伊那郡箕輪町福与５１５",
  "matched_title": "長野県箕輪町福与"
 },
 "長野県上伊那郡箕輪町福与９９８－１": {
  "lat": 35.892174,
  "lon": 138.011292,
  "approx": true,
  "matched_query": "長野県上伊那郡箕輪町福与９９８－１",
  "matched_title": "長野県箕輪町福与"
 },
 "長野県上伊那郡辰野町上島字追ヶ崎１６０７": {
  "lat": 36.014839,
  "lon": 137.961349,
  "approx": true,
  "matched_query": "長野県上伊那郡辰野町上島字追ヶ崎１６０７",
  "matched_title": "長野県辰野町上島"
 },
 "長野県上伊那郡辰野町上島２６０７－５": {
  "lat": 36.014839,
  "lon": 137.961349,
  "approx": true,
  "matched_query": "長野県上伊那郡辰野町上島２６０７－５",
  "matched_title": "長野県辰野町上島"
 },
 "長野県上伊那郡辰野町上島２６０７－９": {
  "lat": 36.014839,
  "lon": 137.961349,
  "approx": true,
  "matched_query": "長野県上伊那郡辰野町上島２６０７－９",
  "matched_title": "長野県辰野町上島"
 },
 "長野県上伊那郡辰野町中央１０５－１": {
  "lat": 35.986141,
  "lon": 137.984955,
  "approx": true,
  "matched_query": "長野県上伊那郡辰野町中央１０５－１",
  "matched_title": "長野県辰野町中央"
 },
 "長野県上伊那郡辰野町中央３１２－１": {
  "lat": 35.986141,
  "lon": 137.984955,
  "approx": true,
  "matched_query": "長野県上伊那郡辰野町中央３１２－１",
  "matched_title": "長野県辰野町中央"
 },
 "長野県上伊那郡辰野町中央３９１－１": {
  "lat": 35.986141,
  "lon": 137.984955,
  "approx": true,
  "matched_query": "長野県上伊那郡辰野町中央３９１－１",
  "matched_title": "長野県辰野町中央"
 },
 "長野県上伊那郡辰野町中央４５２": {
  "lat": 35.986141,
  "lon": 137.984955,
  "approx": true,
  "matched_query": "長野県上伊那郡辰野町中央４５２",
  "matched_title": "長野県辰野町中央"
 },
 "長野県上伊那郡辰野町伊那富南原７４６１－３１": {
  "lat": 35.96751,
  "lon": 137.946304,
  "approx": true,
  "matched_query": "長野県上伊那郡辰野町伊那富南原７４６１－３１",
  "matched_title": "長野県辰野町伊那富"
 },
 "長野県上伊那郡辰野町伊那富字ダヒジリ９５７３－２８": {
  "lat": 35.96751,
  "lon": 137.946304,
  "approx": true,
  "matched_query": "長野県上伊那郡辰野町伊那富字ダヒジリ９５７３－２８",
  "matched_title": "長野県辰野町伊那富"
 },
 "長野県上伊那郡辰野町伊那富字南原７３９１－３": {
  "lat": 35.96751,
  "lon": 137.946304,
  "approx": true,
  "matched_query": "長野県上伊那郡辰野町伊那富字南原７３９１－３",
  "matched_title": "長野県辰野町伊那富"
 },
 "長野県上伊那郡辰野町伊那富字南原７４６１－２８": {
  "lat": 35.96751,
  "lon": 137.946304,
  "approx": true,
  "matched_query": "長野県上伊那郡辰野町伊那富字南原７４６１－２８",
  "matched_title": "長野県辰野町伊那富"
 },
 "長野県上伊那郡辰野町伊那富字山下３８１": {
  "lat": 35.96751,
  "lon": 137.946304,
  "approx": true,
  "matched_query": "長野県上伊那郡辰野町伊那富字山下３８１",
  "matched_title": "長野県辰野町伊那富"
 },
 "長野県上伊那郡辰野町伊那富字青木８２６６－２": {
  "lat": 35.96751,
  "lon": 137.946304,
  "approx": true,
  "matched_query": "長野県上伊那郡辰野町伊那富字青木８２６６－２",
  "matched_title": "長野県辰野町伊那富"
 },
 "長野県上伊那郡辰野町伊那富字青木８２７５ー１": {
  "lat": 35.96751,
  "lon": 137.946304,
  "approx": true,
  "matched_query": "長野県上伊那郡辰野町伊那富字青木８２７５ー１",
  "matched_title": "長野県辰野町伊那富"
 },
 "長野県上伊那郡辰野町伊那富宮木北湯船１１７３－２": {
  "lat": 35.983952,
  "lon": 137.97728,
  "approx": true,
  "matched_query": "長野県上伊那郡辰野町伊那富宮木北湯船１１７３－２",
  "matched_title": "長野県辰野町大字伊那富宮木北湯舟"
 },
 "長野県上伊那郡辰野町伊那富沢尻６５８０": {
  "lat": 35.96751,
  "lon": 137.946304,
  "approx": true,
  "matched_query": "長野県上伊那郡辰野町伊那富沢尻６５８０",
  "matched_title": "長野県辰野町伊那富"
 },
 "長野県上伊那郡辰野町伊那富１１１３－１": {
  "lat": 35.96751,
  "lon": 137.946304,
  "approx": true,
  "matched_query": "長野県上伊那郡辰野町伊那富１１１３－１",
  "matched_title": "長野県辰野町伊那富"
 },
 "長野県上伊那郡辰野町伊那富１１１６−１": {
  "lat": 35.96751,
  "lon": 137.946304,
  "approx": true,
  "matched_query": "長野県上伊那郡辰野町伊那富１１１６−１",
  "matched_title": "長野県辰野町伊那富"
 },
 "長野県上伊那郡辰野町伊那富１１２０－１": {
  "lat": 35.96751,
  "lon": 137.946304,
  "approx": true,
  "matched_query": "長野県上伊那郡辰野町伊那富１１２０－１",
  "matched_title": "長野県辰野町伊那富"
 },
 "長野県上伊那郡辰野町伊那富１１２１": {
  "lat": 35.96751,
  "lon": 137.946304,
  "approx": true,
  "matched_query": "長野県上伊那郡辰野町伊那富１１２１",
  "matched_title": "長野県辰野町伊那富"
 },
 "長野県上伊那郡辰野町伊那富１８２９－イ": {
  "lat": 35.96751,
  "lon": 137.946304,
  "approx": true,
  "matched_query": "長野県上伊那郡辰野町伊那富１８２９－イ",
  "matched_title": "長野県辰野町伊那富"
 },
 "長野県上伊那郡辰野町伊那富１８３１－イ": {
  "lat": 35.96751,
  "lon": 137.946304,
  "approx": true,
  "matched_query": "長野県上伊那郡辰野町伊那富１８３１－イ",
  "matched_title": "長野県辰野町伊那富"
 },
 "長野県上伊那郡辰野町伊那富２２６９－１": {
  "lat": 35.96751,
  "lon": 137.946304,
  "approx": true,
  "matched_query": "長野県上伊那郡辰野町伊那富２２６９－１",
  "matched_title": "長野県辰野町伊那富"
 },
 "長野県上伊那郡辰野町伊那富２２８３": {
  "lat": 35.96751,
  "lon": 137.946304,
  "approx": true,
  "matched_query": "長野県上伊那郡辰野町伊那富２２８３",
  "matched_title": "長野県辰野町伊那富"
 },
 "長野県上伊那郡辰野町伊那富２２９３": {
  "lat": 35.96751,
  "lon": 137.946304,
  "approx": true,
  "matched_query": "長野県上伊那郡辰野町伊那富２２９３",
  "matched_title": "長野県辰野町伊那富"
 },
 "長野県上伊那郡辰野町伊那富２３８１－１": {
  "lat": 35.96751,
  "lon": 137.946304,
  "approx": true,
  "matched_query": "長野県上伊那郡辰野町伊那富２３８１－１",
  "matched_title": "長野県辰野町伊那富"
 },
 "長野県上伊那郡辰野町伊那富２４８６": {
  "lat": 35.96751,
  "lon": 137.946304,
  "approx": true,
  "matched_query": "長野県上伊那郡辰野町伊那富２４８６",
  "matched_title": "長野県辰野町伊那富"
 },
 "長野県上伊那郡辰野町伊那富２５８８－１": {
  "lat": 35.96751,
  "lon": 137.946304,
  "approx": true,
  "matched_query": "長野県上伊那郡辰野町伊那富２５８８－１",
  "matched_title": "長野県辰野町伊那富"
 },
 "長野県上伊那郡辰野町伊那富３１１３－３": {
  "lat": 35.96751,
  "lon": 137.946304,
  "approx": true,
  "matched_query": "長野県上伊那郡辰野町伊那富３１１３－３",
  "matched_title": "長野県辰野町伊那富"
 },
 "長野県上伊那郡辰野町伊那富３１１５－１": {
  "lat": 35.96751,
  "lon": 137.946304,
  "approx": true,
  "matched_query": "長野県上伊那郡辰野町伊那富３１１５－１",
  "matched_title": "長野県辰野町伊那富"
 },
 "長野県上伊那郡辰野町伊那富３２０８－１": {
  "lat": 35.96751,
  "lon": 137.946304,
  "approx": true,
  "matched_query": "長野県上伊那郡辰野町伊那富３２０８－１",
  "matched_title": "長野県辰野町伊那富"
 },
 "長野県上伊那郡辰野町伊那富３２２４‐３": {
  "lat": 35.96751,
  "lon": 137.946304,
  "approx": true,
  "matched_query": "長野県上伊那郡辰野町伊那富３２２４‐３",
  "matched_title": "長野県辰野町伊那富"
 },
 "長野県上伊那郡辰野町伊那富３４０４－１": {
  "lat": 35.96751,
  "lon": 137.946304,
  "approx": true,
  "matched_query": "長野県上伊那郡辰野町伊那富３４０４－１",
  "matched_title": "長野県辰野町伊那富"
 },
 "長野県上伊那郡辰野町伊那富３６２０－１": {
  "lat": 35.96751,
  "lon": 137.946304,
  "approx": true,
  "matched_query": "長野県上伊那郡辰野町伊那富３６２０－１",
  "matched_title": "長野県辰野町伊那富"
 },
 "長野県上伊那郡辰野町伊那富３６９１－１": {
  "lat": 35.96751,
  "lon": 137.946304,
  "approx": true,
  "matched_query": "長野県上伊那郡辰野町伊那富３６９１－１",
  "matched_title": "長野県辰野町伊那富"
 },
 "長野県上伊那郡辰野町伊那富３６９８－１": {
  "lat": 35.96751,
  "lon": 137.946304,
  "approx": true,
  "matched_query": "長野県上伊那郡辰野町伊那富３６９８－１",
  "matched_title": "長野県辰野町伊那富"
 },
 "長野県上伊那郡辰野町伊那富３７４３": {
  "lat": 35.96751,
  "lon": 137.946304,
  "approx": true,
  "matched_query": "長野県上伊那郡辰野町伊那富３７４３",
  "matched_title": "長野県辰野町伊那富"
 },
 "長野県上伊那郡辰野町伊那富３７５２‐４": {
  "lat": 35.96751,
  "lon": 137.946304,
  "approx": true,
  "matched_query": "長野県上伊那郡辰野町伊那富３７５２‐４",
  "matched_title": "長野県辰野町伊那富"
 },
 "長野県上伊那郡辰野町伊那富３８３１－３": {
  "lat": 35.96751,
  "lon": 137.946304,
  "approx": true,
  "matched_query": "長野県上伊那郡辰野町伊那富３８３１－３",
  "matched_title": "長野県辰野町伊那富"
 },
 "長野県上伊那郡辰野町伊那富５０３０‐５": {
  "lat": 35.96751,
  "lon": 137.946304,
  "approx": true,
  "matched_query": "長野県上伊那郡辰野町伊那富５０３０‐５",
  "matched_title": "長野県辰野町伊那富"
 },
 "長野県上伊那郡辰野町伊那富５３１０－４": {
  "lat": 35.96751,
  "lon": 137.946304,
  "approx": true,
  "matched_query": "長野県上伊那郡辰野町伊那富５３１０－４",
  "matched_title": "長野県辰野町伊那富"
 },
 "長野県上伊那郡辰野町伊那富６０４３－１": {
  "lat": 35.96751,
  "lon": 137.946304,
  "approx": true,
  "matched_query": "長野県上伊那郡辰野町伊那富６０４３－１",
  "matched_title": "長野県辰野町伊那富"
 },
 "長野県上伊那郡辰野町伊那富６９７２": {
  "lat": 35.96751,
  "lon": 137.946304,
  "approx": true,
  "matched_query": "長野県上伊那郡辰野町伊那富６９７２",
  "matched_title": "長野県辰野町伊那富"
 },
 "長野県上伊那郡辰野町伊那富７４７４－１": {
  "lat": 35.96751,
  "lon": 137.946304,
  "approx": true,
  "matched_query": "長野県上伊那郡辰野町伊那富７４７４－１",
  "matched_title": "長野県辰野町伊那富"
 },
 "長野県上伊那郡辰野町伊那富７６６２　ヴィラエクセレント": {
  "lat": 35.96751,
  "lon": 137.946304,
  "approx": true,
  "matched_query": "長野県上伊那郡辰野町伊那富７６６２　ヴィラエクセレント",
  "matched_title": "長野県辰野町伊那富"
 },
 "長野県上伊那郡辰野町伊那富７６７６‐２": {
  "lat": 35.96751,
  "lon": 137.946304,
  "approx": true,
  "matched_query": "長野県上伊那郡辰野町伊那富７６７６‐２",
  "matched_title": "長野県辰野町伊那富"
 },
 "長野県上伊那郡辰野町伊那富７９５－１": {
  "lat": 35.96751,
  "lon": 137.946304,
  "approx": true,
  "matched_query": "長野県上伊那郡辰野町伊那富７９５－１",
  "matched_title": "長野県辰野町伊那富"
 },
 "長野県上伊那郡辰野町伊那富８３１２－２": {
  "lat": 35.96751,
  "lon": 137.946304,
  "approx": true,
  "matched_query": "長野県上伊那郡辰野町伊那富８３１２－２",
  "matched_title": "長野県辰野町伊那富"
 },
 "長野県上伊那郡辰野町伊那富８３３５": {
  "lat": 35.96751,
  "lon": 137.946304,
  "approx": true,
  "matched_query": "長野県上伊那郡辰野町伊那富８３３５",
  "matched_title": "長野県辰野町伊那富"
 },
 "長野県上伊那郡辰野町伊那富８４１－１": {
  "lat": 35.96751,
  "lon": 137.946304,
  "approx": true,
  "matched_query": "長野県上伊那郡辰野町伊那富８４１－１",
  "matched_title": "長野県辰野町伊那富"
 },
 "長野県上伊那郡辰野町伊那富８６３０－１": {
  "lat": 35.96751,
  "lon": 137.946304,
  "approx": true,
  "matched_query": "長野県上伊那郡辰野町伊那富８６３０－１",
  "matched_title": "長野県辰野町伊那富"
 },
 "長野県上伊那郡辰野町伊那富８６４０　ロジュマンコスモ": {
  "lat": 35.96751,
  "lon": 137.946304,
  "approx": true,
  "matched_query": "長野県上伊那郡辰野町伊那富８６４０　ロジュマンコスモ",
  "matched_title": "長野県辰野町伊那富"
 },
 "長野県上伊那郡辰野町伊那富８６４１　エトワールコスモ": {
  "lat": 35.96751,
  "lon": 137.946304,
  "approx": true,
  "matched_query": "長野県上伊那郡辰野町伊那富８６４１　エトワールコスモ",
  "matched_title": "長野県辰野町伊那富"
 },
 "長野県上伊那郡辰野町伊那富９０５７－４": {
  "lat": 35.96751,
  "lon": 137.946304,
  "approx": true,
  "matched_query": "長野県上伊那郡辰野町伊那富９０５７－４",
  "matched_title": "長野県辰野町伊那富"
 },
 "長野県上伊那郡辰野町伊那富９１１１－１": {
  "lat": 35.96751,
  "lon": 137.946304,
  "approx": true,
  "matched_query": "長野県上伊那郡辰野町伊那富９１１１－１",
  "matched_title": "長野県辰野町伊那富"
 },
 "長野県上伊那郡辰野町伊那富９１２９－１": {
  "lat": 35.96751,
  "lon": 137.946304,
  "approx": true,
  "matched_query": "長野県上伊那郡辰野町伊那富９１２９－１",
  "matched_title": "長野県辰野町伊那富"
 },
 "長野県上伊那郡辰野町伊那富９１３２－１": {
  "lat": 35.96751,
  "lon": 137.946304,
  "approx": true,
  "matched_query": "長野県上伊那郡辰野町伊那富９１３２－１",
  "matched_title": "長野県辰野町伊那富"
 },
 "長野県上伊那郡辰野町伊那富９１３５－１": {
  "lat": 35.96751,
  "lon": 137.946304,
  "approx": true,
  "matched_query": "長野県上伊那郡辰野町伊那富９１３５－１",
  "matched_title": "長野県辰野町伊那富"
 },
 "長野県上伊那郡辰野町伊那富９１５０－３": {
  "lat": 35.96751,
  "lon": 137.946304,
  "approx": true,
  "matched_query": "長野県上伊那郡辰野町伊那富９１５０－３",
  "matched_title": "長野県辰野町伊那富"
 },
 "長野県上伊那郡辰野町伊那富９１９９‐１６２": {
  "lat": 35.96751,
  "lon": 137.946304,
  "approx": true,
  "matched_query": "長野県上伊那郡辰野町伊那富９１９９‐１６２",
  "matched_title": "長野県辰野町伊那富"
 },
 "長野県上伊那郡辰野町伊那富９６１７": {
  "lat": 35.96751,
  "lon": 137.946304,
  "approx": true,
  "matched_query": "長野県上伊那郡辰野町伊那富９６１７",
  "matched_title": "長野県辰野町伊那富"
 },
 "長野県上伊那郡辰野町伊那富９６１７－１": {
  "lat": 35.96751,
  "lon": 137.946304,
  "approx": true,
  "matched_query": "長野県上伊那郡辰野町伊那富９６１７－１",
  "matched_title": "長野県辰野町伊那富"
 },
 "長野県上伊那郡辰野町伊那富９６１７－２": {
  "lat": 35.96751,
  "lon": 137.946304,
  "approx": true,
  "matched_query": "長野県上伊那郡辰野町伊那富９６１７－２",
  "matched_title": "長野県辰野町伊那富"
 },
 "長野県上伊那郡辰野町大字伊那富字原田４４６７－２": {
  "lat": 35.96751,
  "lon": 137.946304,
  "approx": true,
  "matched_query": "長野県上伊那郡辰野町大字伊那富字原田４４６７－２",
  "matched_title": "長野県辰野町伊那富"
 },
 "長野県上伊那郡辰野町大字伊那富字山腰９１３６－２": {
  "lat": 35.96751,
  "lon": 137.946304,
  "approx": true,
  "matched_query": "長野県上伊那郡辰野町大字伊那富字山腰９１３６－２",
  "matched_title": "長野県辰野町伊那富"
 },
 "長野県上伊那郡辰野町大字伊那富字山腰９１４１": {
  "lat": 35.96751,
  "lon": 137.946304,
  "approx": true,
  "matched_query": "長野県上伊那郡辰野町大字伊那富字山腰９１４１",
  "matched_title": "長野県辰野町伊那富"
 },
 "長野県上伊那郡辰野町大字伊那富字滝洞口３７５２－１": {
  "lat": 35.96751,
  "lon": 137.946304,
  "approx": true,
  "matched_query": "長野県上伊那郡辰野町大字伊那富字滝洞口３７５２－１",
  "matched_title": "長野県辰野町伊那富"
 },
 "長野県上伊那郡辰野町大字伊那富字滝洞口３７５６": {
  "lat": 35.96751,
  "lon": 137.946304,
  "approx": true,
  "matched_query": "長野県上伊那郡辰野町大字伊那富字滝洞口３７５６",
  "matched_title": "長野県辰野町伊那富"
 },
 "長野県上伊那郡辰野町大字伊那富字鞍掛７６７７": {
  "lat": 35.96751,
  "lon": 137.946304,
  "approx": true,
  "matched_query": "長野県上伊那郡辰野町大字伊那富字鞍掛７６７７",
  "matched_title": "長野県辰野町伊那富"
 },
 "長野県上伊那郡辰野町大字伊那富林ノ下２１３４－１": {
  "lat": 35.96751,
  "lon": 137.946304,
  "approx": true,
  "matched_query": "長野県上伊那郡辰野町大字伊那富林ノ下２１３４－１",
  "matched_title": "長野県辰野町伊那富"
 },
 "長野県上伊那郡辰野町大字伊那富１０９－１": {
  "lat": 35.96751,
  "lon": 137.946304,
  "approx": true,
  "matched_query": "長野県上伊那郡辰野町大字伊那富１０９－１",
  "matched_title": "長野県辰野町伊那富"
 },
 "長野県上伊那郡辰野町大字伊那富１１７６": {
  "lat": 35.96751,
  "lon": 137.946304,
  "approx": true,
  "matched_query": "長野県上伊那郡辰野町大字伊那富１１７６",
  "matched_title": "長野県辰野町伊那富"
 },
 "長野県上伊那郡辰野町大字伊那富１２１９－１": {
  "lat": 35.96751,
  "lon": 137.946304,
  "approx": true,
  "matched_query": "長野県上伊那郡辰野町大字伊那富１２１９－１",
  "matched_title": "長野県辰野町伊那富"
 },
 "長野県上伊那郡辰野町大字伊那富１２８０－１": {
  "lat": 35.96751,
  "lon": 137.946304,
  "approx": true,
  "matched_query": "長野県上伊那郡辰野町大字伊那富１２８０－１",
  "matched_title": "長野県辰野町伊那富"
 },
 "長野県上伊那郡辰野町大字伊那富３６２３－１": {
  "lat": 35.96751,
  "lon": 137.946304,
  "approx": true,
  "matched_query": "長野県上伊那郡辰野町大字伊那富３６２３－１",
  "matched_title": "長野県辰野町伊那富"
 },
 "長野県上伊那郡辰野町大字伊那富５２４５－２３": {
  "lat": 35.96751,
  "lon": 137.946304,
  "approx": true,
  "matched_query": "長野県上伊那郡辰野町大字伊那富５２４５－２３",
  "matched_title": "長野県辰野町伊那富"
 },
 "長野県上伊那郡辰野町大字伊那富５２４６－１": {
  "lat": 35.96751,
  "lon": 137.946304,
  "approx": true,
  "matched_query": "長野県上伊那郡辰野町大字伊那富５２４６－１",
  "matched_title": "長野県辰野町伊那富"
 },
 "長野県上伊那郡辰野町大字伊那富５２４６－４": {
  "lat": 35.96751,
  "lon": 137.946304,
  "approx": true,
  "matched_query": "長野県上伊那郡辰野町大字伊那富５２４６－４",
  "matched_title": "長野県辰野町伊那富"
 },
 "長野県上伊那郡辰野町大字伊那富５３１３－４": {
  "lat": 35.96751,
  "lon": 137.946304,
  "approx": true,
  "matched_query": "長野県上伊那郡辰野町大字伊那富５３１３－４",
  "matched_title": "長野県辰野町伊那富"
 },
 "長野県上伊那郡辰野町大字伊那富５３１５": {
  "lat": 35.96751,
  "lon": 137.946304,
  "approx": true,
  "matched_query": "長野県上伊那郡辰野町大字伊那富５３１５",
  "matched_title": "長野県辰野町伊那富"
 },
 "長野県上伊那郡辰野町大字伊那富６７２４－１": {
  "lat": 35.96751,
  "lon": 137.946304,
  "approx": true,
  "matched_query": "長野県上伊那郡辰野町大字伊那富６７２４－１",
  "matched_title": "長野県辰野町伊那富"
 },
 "長野県上伊那郡辰野町大字伊那富７３９５‐１": {
  "lat": 35.96751,
  "lon": 137.946304,
  "approx": true,
  "matched_query": "長野県上伊那郡辰野町大字伊那富７３９５‐１",
  "matched_title": "長野県辰野町伊那富"
 },
 "長野県上伊那郡辰野町大字伊那富７８０８－１": {
  "lat": 35.96751,
  "lon": 137.946304,
  "approx": true,
  "matched_query": "長野県上伊那郡辰野町大字伊那富７８０８－１",
  "matched_title": "長野県辰野町伊那富"
 },
 "長野県上伊那郡辰野町大字伊那富８７７７": {
  "lat": 35.96751,
  "lon": 137.946304,
  "approx": true,
  "matched_query": "長野県上伊那郡辰野町大字伊那富８７７７",
  "matched_title": "長野県辰野町伊那富"
 },
 "長野県上伊那郡辰野町大字伊那富９１２９－４": {
  "lat": 35.96751,
  "lon": 137.946304,
  "approx": true,
  "matched_query": "長野県上伊那郡辰野町大字伊那富９１２９－４",
  "matched_title": "長野県辰野町伊那富"
 },
 "長野県上伊那郡辰野町大字伊那富９１２９－６": {
  "lat": 35.96751,
  "lon": 137.946304,
  "approx": true,
  "matched_query": "長野県上伊那郡辰野町大字伊那富９１２９－６",
  "matched_title": "長野県辰野町伊那富"
 },
 "長野県上伊那郡辰野町大字伊那富９１２９－８": {
  "lat": 35.96751,
  "lon": 137.946304,
  "approx": true,
  "matched_query": "長野県上伊那郡辰野町大字伊那富９１２９－８",
  "matched_title": "長野県辰野町伊那富"
 },
 "長野県上伊那郡辰野町大字伊那富９１６７－３": {
  "lat": 35.96751,
  "lon": 137.946304,
  "approx": true,
  "matched_query": "長野県上伊那郡辰野町大字伊那富９１６７－３",
  "matched_title": "長野県辰野町伊那富"
 },
 "長野県上伊那郡辰野町大字伊那富９６３９－７": {
  "lat": 35.96751,
  "lon": 137.946304,
  "approx": true,
  "matched_query": "長野県上伊那郡辰野町大字伊那富９６３９－７",
  "matched_title": "長野県辰野町伊那富"
 },
 "長野県上伊那郡辰野町大字小野字寺ノ前１９０６": {
  "lat": 36.040279,
  "lon": 137.961594,
  "approx": true,
  "matched_query": "長野県上伊那郡辰野町大字小野字寺ノ前１９０６",
  "matched_title": "長野県辰野町小野"
 },
 "長野県上伊那郡辰野町大字小野字長井坂４１９６－１": {
  "lat": 36.040279,
  "lon": 137.961594,
  "approx": true,
  "matched_query": "長野県上伊那郡辰野町大字小野字長井坂４１９６－１",
  "matched_title": "長野県辰野町小野"
 },
 "長野県上伊那郡辰野町大字平出１６６１－１": {
  "lat": 35.99271,
  "lon": 138.014511,
  "approx": true,
  "matched_query": "長野県上伊那郡辰野町大字平出１６６１－１",
  "matched_title": "長野県辰野町平出"
 },
 "長野県上伊那郡辰野町大字平出８１６－１": {
  "lat": 35.99271,
  "lon": 138.014511,
  "approx": true,
  "matched_query": "長野県上伊那郡辰野町大字平出８１６－１",
  "matched_title": "長野県辰野町平出"
 },
 "長野県上伊那郡辰野町大字樋口１５６２－３": {
  "lat": 35.95948,
  "lon": 137.988892,
  "approx": false,
  "matched_query": "長野県上伊那郡辰野町大字樋口１５６２－３",
  "matched_title": "長野県辰野町樋口１５６２番地"
 },
 "長野県上伊那郡辰野町大字樋口９４８－１": {
  "lat": 35.956551,
  "lon": 138.003128,
  "approx": true,
  "matched_query": "長野県上伊那郡辰野町大字樋口９４８－１",
  "matched_title": "長野県辰野町樋口"
 },
 "長野県上伊那郡辰野町大字樋口９５２": {
  "lat": 35.956551,
  "lon": 138.003128,
  "approx": true,
  "matched_query": "長野県上伊那郡辰野町大字樋口９５２",
  "matched_title": "長野県辰野町樋口"
 },
 "長野県上伊那郡辰野町大字横川字入谷２６５番": {
  "lat": 35.968178,
  "lon": 137.883438,
  "approx": true,
  "matched_query": "長野県上伊那郡辰野町大字横川字入谷２６５番",
  "matched_title": "長野県辰野町横川"
 },
 "長野県上伊那郡辰野町大字横川字門前１７０５－１": {
  "lat": 35.968178,
  "lon": 137.883438,
  "approx": true,
  "matched_query": "長野県上伊那郡辰野町大字横川字門前１７０５－１",
  "matched_title": "長野県辰野町横川"
 },
 "長野県上伊那郡辰野町大字横川字門前１７１２－１": {
  "lat": 35.968178,
  "lon": 137.883438,
  "approx": true,
  "matched_query": "長野県上伊那郡辰野町大字横川字門前１７１２－１",
  "matched_title": "長野県辰野町横川"
 },
 "長野県上伊那郡辰野町大字澤底字上ノ山１２９番２": {
  "lat": 35.981682,
  "lon": 138.029434,
  "approx": true,
  "matched_query": "長野県上伊那郡辰野町大字澤底字上ノ山１２９番２",
  "matched_title": "長野県辰野町澤底"
 },
 "長野県上伊那郡辰野町大字澤底字後阿原７６８－１": {
  "lat": 35.981682,
  "lon": 138.029434,
  "approx": true,
  "matched_query": "長野県上伊那郡辰野町大字澤底字後阿原７６８－１",
  "matched_title": "長野県辰野町澤底"
 },
 "長野県上伊那郡辰野町大字赤羽３９９－１": {
  "lat": 35.967747,
  "lon": 138.000992,
  "approx": false,
  "matched_query": "長野県上伊那郡辰野町大字赤羽３９９－１",
  "matched_title": "長野県辰野町赤羽３９９番地"
 },
 "長野県上伊那郡辰野町大字辰野字北畑２３３０－１": {
  "lat": 36.014389,
  "lon": 137.981339,
  "approx": true,
  "matched_query": "長野県上伊那郡辰野町大字辰野字北畑２３３０－１",
  "matched_title": "長野県辰野町大字辰野"
 },
 "長野県上伊那郡辰野町大字辰野４０６－１": {
  "lat": 36.014389,
  "lon": 137.981339,
  "approx": true,
  "matched_query": "長野県上伊那郡辰野町大字辰野４０６－１",
  "matched_title": "長野県辰野町大字辰野"
 },
 "長野県上伊那郡辰野町大字辰野５６１－２": {
  "lat": 36.014389,
  "lon": 137.981339,
  "approx": true,
  "matched_query": "長野県上伊那郡辰野町大字辰野５６１－２",
  "matched_title": "長野県辰野町大字辰野"
 },
 "長野県上伊那郡辰野町大字辰野５６６－１": {
  "lat": 36.014389,
  "lon": 137.981339,
  "approx": true,
  "matched_query": "長野県上伊那郡辰野町大字辰野５６６－１",
  "matched_title": "長野県辰野町大字辰野"
 },
 "長野県上伊那郡辰野町大字辰野６５８": {
  "lat": 36.014389,
  "lon": 137.981339,
  "approx": true,
  "matched_query": "長野県上伊那郡辰野町大字辰野６５８",
  "matched_title": "長野県辰野町大字辰野"
 },
 "長野県上伊那郡辰野町大字辰野６６３－２": {
  "lat": 36.014389,
  "lon": 137.981339,
  "approx": true,
  "matched_query": "長野県上伊那郡辰野町大字辰野６６３－２",
  "matched_title": "長野県辰野町大字辰野"
 },
 "長野県上伊那郡辰野町大字辰野６６８－３": {
  "lat": 36.014389,
  "lon": 137.981339,
  "approx": true,
  "matched_query": "長野県上伊那郡辰野町大字辰野６６８－３",
  "matched_title": "長野県辰野町大字辰野"
 },
 "長野県上伊那郡辰野町大字辰野６７１－１": {
  "lat": 36.014389,
  "lon": 137.981339,
  "approx": true,
  "matched_query": "長野県上伊那郡辰野町大字辰野６７１－１",
  "matched_title": "長野県辰野町大字辰野"
 },
 "長野県上伊那郡辰野町大字辰野６９０－２": {
  "lat": 36.014389,
  "lon": 137.981339,
  "approx": true,
  "matched_query": "長野県上伊那郡辰野町大字辰野６９０－２",
  "matched_title": "長野県辰野町大字辰野"
 },
 "長野県上伊那郡辰野町大字辰野７００－１": {
  "lat": 36.014389,
  "lon": 137.981339,
  "approx": true,
  "matched_query": "長野県上伊那郡辰野町大字辰野７００－１",
  "matched_title": "長野県辰野町大字辰野"
 },
 "長野県上伊那郡辰野町大字辰野７０１－２": {
  "lat": 36.014389,
  "lon": 137.981339,
  "approx": true,
  "matched_query": "長野県上伊那郡辰野町大字辰野７０１－２",
  "matched_title": "長野県辰野町大字辰野"
 },
 "長野県上伊那郡辰野町大字辰野７３２－１": {
  "lat": 36.014389,
  "lon": 137.981339,
  "approx": true,
  "matched_query": "長野県上伊那郡辰野町大字辰野７３２－１",
  "matched_title": "長野県辰野町大字辰野"
 },
 "長野県上伊那郡辰野町宮木砂田２３９３－１": {
  "lat": 35.982498,
  "lon": 137.987503,
  "approx": true,
  "matched_query": "長野県上伊那郡辰野町宮木砂田２３９３－１",
  "matched_title": "長野県上伊那郡辰野町"
 },
 "長野県上伊那郡辰野町小野字梨ノ木畑１３３４－２": {
  "lat": 36.040279,
  "lon": 137.961594,
  "approx": true,
  "matched_query": "長野県上伊那郡辰野町小野字梨ノ木畑１３３４－２",
  "matched_title": "長野県辰野町小野"
 },
 "長野県上伊那郡辰野町小野字長イ坂４２０７": {
  "lat": 36.040279,
  "lon": 137.961594,
  "approx": true,
  "matched_query": "長野県上伊那郡辰野町小野字長イ坂４２０７",
  "matched_title": "長野県辰野町小野"
 },
 "長野県上伊那郡辰野町小野春宮１８１６": {
  "lat": 36.040279,
  "lon": 137.961594,
  "approx": true,
  "matched_query": "長野県上伊那郡辰野町小野春宮１８１６",
  "matched_title": "長野県辰野町小野"
 },
 "長野県上伊那郡辰野町小野春宮１８１７": {
  "lat": 36.040279,
  "lon": 137.961594,
  "approx": true,
  "matched_query": "長野県上伊那郡辰野町小野春宮１８１７",
  "matched_title": "長野県辰野町小野"
 },
 "長野県上伊那郡辰野町小野筑１６－１": {
  "lat": 36.048038,
  "lon": 137.968857,
  "approx": true,
  "matched_query": "長野県上伊那郡辰野町小野筑１６－１",
  "matched_title": "長野県辰野町小野筑"
 },
 "長野県上伊那郡辰野町小野１２６９－３": {
  "lat": 36.040279,
  "lon": 137.961594,
  "approx": true,
  "matched_query": "長野県上伊那郡辰野町小野１２６９－３",
  "matched_title": "長野県辰野町小野"
 },
 "長野県上伊那郡辰野町小野１８１０": {
  "lat": 36.040279,
  "lon": 137.961594,
  "approx": true,
  "matched_query": "長野県上伊那郡辰野町小野１８１０",
  "matched_title": "長野県辰野町小野"
 },
 "長野県上伊那郡辰野町小野３８４２": {
  "lat": 36.040279,
  "lon": 137.961594,
  "approx": true,
  "matched_query": "長野県上伊那郡辰野町小野３８４２",
  "matched_title": "長野県辰野町小野"
 },
 "長野県上伊那郡辰野町小野３８７２－１": {
  "lat": 36.040279,
  "lon": 137.961594,
  "approx": true,
  "matched_query": "長野県上伊那郡辰野町小野３８７２－１",
  "matched_title": "長野県辰野町小野"
 },
 "長野県上伊那郡辰野町小野５０４９": {
  "lat": 36.040279,
  "lon": 137.961594,
  "approx": true,
  "matched_query": "長野県上伊那郡辰野町小野５０４９",
  "matched_title": "長野県辰野町小野"
 },
 "長野県上伊那郡辰野町平出字平田１９３３－１　レジデンスサコウ　スリー": {
  "lat": 35.99271,
  "lon": 138.014511,
  "approx": true,
  "matched_query": "長野県上伊那郡辰野町平出字平田１９３３－１　レジデンスサコウ　スリー",
  "matched_title": "長野県辰野町平出"
 },
 "長野県上伊那郡辰野町平出１１７８－３": {
  "lat": 35.987362,
  "lon": 138.003616,
  "approx": false,
  "matched_query": "長野県上伊那郡辰野町平出１１７８－３",
  "matched_title": "長野県辰野町平出１１７８番地"
 },
 "長野県上伊那郡辰野町平出１２００－３": {
  "lat": 35.99271,
  "lon": 138.014511,
  "approx": true,
  "matched_query": "長野県上伊那郡辰野町平出１２００－３",
  "matched_title": "長野県辰野町平出"
 },
 "長野県上伊那郡辰野町平出１５１９": {
  "lat": 35.981964,
  "lon": 138.000916,
  "approx": false,
  "matched_query": "長野県上伊那郡辰野町平出１５１９",
  "matched_title": "長野県辰野町平出１５１９番地"
 },
 "長野県上伊那郡辰野町平出１５７０－１": {
  "lat": 35.99271,
  "lon": 138.014511,
  "approx": true,
  "matched_query": "長野県上伊那郡辰野町平出１５７０－１",
  "matched_title": "長野県辰野町平出"
 },
 "長野県上伊那郡辰野町平出１５７５－１": {
  "lat": 35.99271,
  "lon": 138.014511,
  "approx": true,
  "matched_query": "長野県上伊那郡辰野町平出１５７５－１",
  "matched_title": "長野県辰野町平出"
 },
 "長野県上伊那郡辰野町平出１６９７－２": {
  "lat": 35.979713,
  "lon": 137.995972,
  "approx": false,
  "matched_query": "長野県上伊那郡辰野町平出１６９７－２",
  "matched_title": "長野県辰野町平出１６９７番地"
 },
 "長野県上伊那郡辰野町平出２０１０－１": {
  "lat": 35.99271,
  "lon": 138.014511,
  "approx": true,
  "matched_query": "長野県上伊那郡辰野町平出２０１０－１",
  "matched_title": "長野県辰野町平出"
 },
 "長野県上伊那郡辰野町平出２０６１－１": {
  "lat": 35.972832,
  "lon": 138.000671,
  "approx": false,
  "matched_query": "長野県上伊那郡辰野町平出２０６１－１",
  "matched_title": "長野県辰野町平出２０６１番地"
 },
 "長野県上伊那郡辰野町平出２３１９－３": {
  "lat": 35.99271,
  "lon": 138.014511,
  "approx": true,
  "matched_query": "長野県上伊那郡辰野町平出２３１９－３",
  "matched_title": "長野県辰野町平出"
 },
 "長野県上伊那郡辰野町平出３１２－２": {
  "lat": 35.99271,
  "lon": 138.014511,
  "approx": true,
  "matched_query": "長野県上伊那郡辰野町平出３１２－２",
  "matched_title": "長野県辰野町平出"
 },
 "長野県上伊那郡辰野町樋口字村前２１９９－１": {
  "lat": 35.956551,
  "lon": 138.003128,
  "approx": true,
  "matched_query": "長野県上伊那郡辰野町樋口字村前２１９９－１",
  "matched_title": "長野県辰野町樋口"
 },
 "長野県上伊那郡辰野町樋口２": {
  "lat": 35.956551,
  "lon": 138.003128,
  "approx": true,
  "matched_query": "長野県上伊那郡辰野町樋口２",
  "matched_title": "長野県辰野町樋口"
 },
 "長野県上伊那郡辰野町樋口２１９３－１": {
  "lat": 35.961388,
  "lon": 137.992065,
  "approx": false,
  "matched_query": "長野県上伊那郡辰野町樋口２１９３－１",
  "matched_title": "長野県辰野町樋口２１９３番地"
 },
 "長野県上伊那郡辰野町樋口２４９１－３２１１": {
  "lat": 35.956551,
  "lon": 138.003128,
  "approx": true,
  "matched_query": "長野県上伊那郡辰野町樋口２４９１－３２１１",
  "matched_title": "長野県辰野町樋口"
 },
 "長野県上伊那郡辰野町樋口４０７－２": {
  "lat": 35.964802,
  "lon": 138.001282,
  "approx": false,
  "matched_query": "長野県上伊那郡辰野町樋口４０７－２",
  "matched_title": "長野県辰野町樋口４０７番地"
 },
 "長野県上伊那郡辰野町沢底１１９－１": {
  "lat": 35.981682,
  "lon": 138.029434,
  "approx": true,
  "matched_query": "長野県上伊那郡辰野町沢底１１９－１",
  "matched_title": "長野県辰野町澤底"
 },
 "長野県上伊那郡辰野町赤羽４４１": {
  "lat": 35.968788,
  "lon": 138.003738,
  "approx": true,
  "matched_query": "長野県上伊那郡辰野町赤羽４４１",
  "matched_title": "長野県辰野町赤羽"
 },
 "長野県上伊那郡辰野町赤羽６０－１": {
  "lat": 35.968788,
  "lon": 138.003738,
  "approx": true,
  "matched_query": "長野県上伊那郡辰野町赤羽６０－１",
  "matched_title": "長野県辰野町赤羽"
 },
 "長野県上伊那郡辰野町赤羽６４８－１": {
  "lat": 35.968788,
  "lon": 138.003738,
  "approx": true,
  "matched_query": "長野県上伊那郡辰野町赤羽６４８－１",
  "matched_title": "長野県辰野町赤羽"
 },
 "長野県上伊那郡辰野町辰野伊那富２３８２": {
  "lat": 36.014389,
  "lon": 137.981339,
  "approx": true,
  "matched_query": "長野県上伊那郡辰野町辰野伊那富２３８２",
  "matched_title": "長野県辰野町大字辰野"
 },
 "長野県上伊那郡辰野町辰野桜町１６１８": {
  "lat": 36.014389,
  "lon": 137.981339,
  "approx": true,
  "matched_query": "長野県上伊那郡辰野町辰野桜町１６１８",
  "matched_title": "長野県辰野町大字辰野"
 },
 "長野県上伊那郡辰野町辰野２０３４": {
  "lat": 36.014389,
  "lon": 137.981339,
  "approx": true,
  "matched_query": "長野県上伊那郡辰野町辰野２０３４",
  "matched_title": "長野県辰野町大字辰野"
 },
 "長野県上伊那郡辰野町辰野２０４８": {
  "lat": 36.014389,
  "lon": 137.981339,
  "approx": true,
  "matched_query": "長野県上伊那郡辰野町辰野２０４８",
  "matched_title": "長野県辰野町大字辰野"
 },
 "長野県上伊那郡辰野町辰野６３７－１": {
  "lat": 36.014389,
  "lon": 137.981339,
  "approx": true,
  "matched_query": "長野県上伊那郡辰野町辰野６３７－１",
  "matched_title": "長野県辰野町大字辰野"
 },
 "長野県上伊那郡飯島町七久保１０１６－２": {
  "lat": 35.649235,
  "lon": 137.911087,
  "approx": false,
  "matched_query": "長野県上伊那郡飯島町七久保１０１６－２",
  "matched_title": "長野県飯島町七久保１０１６番地"
 },
 "長野県上伊那郡飯島町七久保１０２４－１": {
  "lat": 35.658588,
  "lon": 137.890472,
  "approx": true,
  "matched_query": "長野県上伊那郡飯島町七久保１０２４－１",
  "matched_title": "長野県飯島町七久保"
 },
 "長野県上伊那郡飯島町七久保１２８１－１": {
  "lat": 35.658588,
  "lon": 137.890472,
  "approx": true,
  "matched_query": "長野県上伊那郡飯島町七久保１２８１－１",
  "matched_title": "長野県飯島町七久保"
 },
 "長野県上伊那郡飯島町七久保１３３８－１": {
  "lat": 35.652691,
  "lon": 137.922989,
  "approx": false,
  "matched_query": "長野県上伊那郡飯島町七久保１３３８－１",
  "matched_title": "長野県飯島町七久保１３３８番地"
 },
 "長野県上伊那郡飯島町七久保１４２３－２": {
  "lat": 35.658588,
  "lon": 137.890472,
  "approx": true,
  "matched_query": "長野県上伊那郡飯島町七久保１４２３－２",
  "matched_title": "長野県飯島町七久保"
 },
 "長野県上伊那郡飯島町七久保１４４４－２": {
  "lat": 35.658054,
  "lon": 137.9133,
  "approx": false,
  "matched_query": "長野県上伊那郡飯島町七久保１４４４－２",
  "matched_title": "長野県飯島町七久保１４４４番地"
 },
 "長野県上伊那郡飯島町七久保１６－１": {
  "lat": 35.658588,
  "lon": 137.890472,
  "approx": true,
  "matched_query": "長野県上伊那郡飯島町七久保１６－１",
  "matched_title": "長野県飯島町七久保"
 },
 "長野県上伊那郡飯島町七久保２１３": {
  "lat": 35.658588,
  "lon": 137.890472,
  "approx": true,
  "matched_query": "長野県上伊那郡飯島町七久保２１３",
  "matched_title": "長野県飯島町七久保"
 },
 "長野県上伊那郡飯島町七久保２３８－２": {
  "lat": 35.658588,
  "lon": 137.890472,
  "approx": true,
  "matched_query": "長野県上伊那郡飯島町七久保２３８－２",
  "matched_title": "長野県飯島町七久保"
 },
 "長野県上伊那郡飯島町七久保２４５－２": {
  "lat": 35.658588,
  "lon": 137.890472,
  "approx": true,
  "matched_query": "長野県上伊那郡飯島町七久保２４５－２",
  "matched_title": "長野県飯島町七久保"
 },
 "長野県上伊那郡飯島町七久保２５８９－１０": {
  "lat": 35.669788,
  "lon": 137.894867,
  "approx": false,
  "matched_query": "長野県上伊那郡飯島町七久保２５８９－１０",
  "matched_title": "長野県飯島町七久保２５８９番地"
 },
 "長野県上伊那郡飯島町七久保２６１５": {
  "lat": 35.658588,
  "lon": 137.890472,
  "approx": true,
  "matched_query": "長野県上伊那郡飯島町七久保２６１５",
  "matched_title": "長野県飯島町七久保"
 },
 "長野県上伊那郡飯島町七久保３０１３－１１４": {
  "lat": 35.658588,
  "lon": 137.890472,
  "approx": true,
  "matched_query": "長野県上伊那郡飯島町七久保３０１３－１１４",
  "matched_title": "長野県飯島町七久保"
 },
 "長野県上伊那郡飯島町七久保３０１７－４０５": {
  "lat": 35.652657,
  "lon": 137.881363,
  "approx": false,
  "matched_query": "長野県上伊那郡飯島町七久保３０１７－４０５",
  "matched_title": "長野県飯島町七久保３０１７番地"
 },
 "長野県上伊那郡飯島町七久保３０９６‐１": {
  "lat": 35.658588,
  "lon": 137.890472,
  "approx": true,
  "matched_query": "長野県上伊那郡飯島町七久保３０９６‐１",
  "matched_title": "長野県飯島町七久保"
 },
 "長野県上伊那郡飯島町七久保４２１５－２": {
  "lat": 35.658588,
  "lon": 137.890472,
  "approx": true,
  "matched_query": "長野県上伊那郡飯島町七久保４２１５－２",
  "matched_title": "長野県飯島町七久保"
 },
 "長野県上伊那郡飯島町七久保４２１６－１": {
  "lat": 35.658588,
  "lon": 137.890472,
  "approx": true,
  "matched_query": "長野県上伊那郡飯島町七久保４２１６－１",
  "matched_title": "長野県飯島町七久保"
 },
 "長野県上伊那郡飯島町七久保４２１９－１": {
  "lat": 35.658588,
  "lon": 137.890472,
  "approx": true,
  "matched_query": "長野県上伊那郡飯島町七久保４２１９－１",
  "matched_title": "長野県飯島町七久保"
 },
 "長野県上伊那郡飯島町七久保４２２５－５": {
  "lat": 35.658588,
  "lon": 137.890472,
  "approx": true,
  "matched_query": "長野県上伊那郡飯島町七久保４２２５－５",
  "matched_title": "長野県飯島町七久保"
 },
 "長野県上伊那郡飯島町七久保４２２７－１": {
  "lat": 35.658588,
  "lon": 137.890472,
  "approx": true,
  "matched_query": "長野県上伊那郡飯島町七久保４２２７－１",
  "matched_title": "長野県飯島町七久保"
 },
 "長野県上伊那郡飯島町七久保４２４５": {
  "lat": 35.658588,
  "lon": 137.890472,
  "approx": true,
  "matched_query": "長野県上伊那郡飯島町七久保４２４５",
  "matched_title": "長野県飯島町七久保"
 },
 "長野県上伊那郡飯島町七久保４３００": {
  "lat": 35.658588,
  "lon": 137.890472,
  "approx": true,
  "matched_query": "長野県上伊那郡飯島町七久保４３００",
  "matched_title": "長野県飯島町七久保"
 },
 "長野県上伊那郡飯島町七久保４３３１－１": {
  "lat": 35.658588,
  "lon": 137.890472,
  "approx": true,
  "matched_query": "長野県上伊那郡飯島町七久保４３３１－１",
  "matched_title": "長野県飯島町七久保"
 },
 "長野県上伊那郡飯島町七久保４３３２－２": {
  "lat": 35.656189,
  "lon": 137.902298,
  "approx": false,
  "matched_query": "長野県上伊那郡飯島町七久保４３３２－２",
  "matched_title": "長野県飯島町七久保４３３２番地"
 },